cleanstop_name,Total Avg. Ons,Total Avg. Offs,Overall Mean Avg. Ons,Overall Mean Avg. Offs,stop_lat,stop_lon
AbbottDrOpp,0.0,0.333333333333333,0.0,0.333333333333333,39.960287,-75.335847
AbbottsfordAvFoxSt,0.1,0.1,0.1,0.1,40.014236,-75.178178
AbbottsfordAvHenryAvFS,1.0,0.272727272727273,1.0,0.272727272727273,40.011655,-75.18191
AbbottsfordAvHenryAvMBFS,0.3,0.0,0.3,0.0,40.012865,-75.180145
AcademyRdAmityRd,0.0,0.3,0.0,0.15,40.0833015,-74.991656
AcademyRdAvalonSt,0.0,0.27692307692307694,0.0,0.09230769230769231,40.075811,-75.00093466666668
AcademyRdAvalonStMBFS,0.0,0.0,0.0,0.0,40.077229,-74.99966
AcademyRdBandonDr,0.6940170940170937,1.4408119658119658,0.17350427350427342,0.36020299145299145,40.0936265,-74.96736
AcademyRdBiscayneDr,0.0,0.25,0.0,0.125,40.092355,-74.96638
AcademyRdBiscayneDrFS,0.0,0.611111111111111,0.0,0.3055555555555555,40.092533,-74.966178
AcademyRdBrandonRd,0.0,0.0,0.0,0.0,40.091896,-74.982487
AcademyRdByberryRd,0.0,0.0,0.0,0.0,40.09606133333333,-74.976765
AcademyRdChalfontDrMBNS,0.0,0.0,0.0,0.0,40.085338,-74.988218
AcademyRdComlyRdFS,0.25,0.5,0.25,0.5,40.090098,-74.983894
AcademyRdComlyRdMBFS,0.8205128205128209,0.0,0.20512820512820523,0.0,40.0877675,-74.9861095
AcademyRdComlyRdMBNS,1.5,0.25,1.5,0.25,40.088381,-74.985396
AcademyRdConventAv,1.05555555555556,0.692307692307692,0.35185185185185336,0.23076923076923064,40.062624666666665,-75.00953700000001
AcademyRdCromwellRd,0.486111111111111,0.854166666666667,0.2430555555555555,0.4270833333333335,40.080884,-74.995829
AcademyRdEdenSt,0.70940170940171,0.606837606837607,0.354700854700855,0.3034188034188035,40.0650115,-75.009474
AcademyRdFairdaleRd,0.0,0.0,0.0,0.0,40.094871,-74.978256
AcademyRdFairdaleRdFS,0.0,0.0,0.0,0.0,40.09497,-74.978527
AcademyRdGlennSt,0.0,0.0,0.0,0.0,40.07434766666666,-75.00202366666667
AcademyRdGrantAvMBFS,0.111111111111111,0.111111111111111,0.111111111111111,0.111111111111111,40.070046,-75.00563
AcademyRdGrantAvMBNS,0.0,0.230769230769231,0.0,0.230769230769231,40.070403,-75.005497
AcademyRdHolmeAv,1.33333333333333,1.66666666666667,1.33333333333333,1.66666666666667,40.0579,-75.008835
AcademyRdHolmeAvFS,0.1,0.0,0.05,0.0,40.058132,-75.008763
AcademyRdHolyokeRd,1.307692307692308,0.461538461538462,0.653846153846154,0.230769230769231,40.0673975,-75.00888599999999
AcademyRdMedfordRd,0.0,0.947222222222222,0.0,0.31574074074074066,40.09651,-74.97574100000001
AcademyRdMorrellAv,0.0,0.27692307692307694,0.0,0.13846153846153847,40.078555,-74.998529
AcademyRdMorrellAvFS,0.0,0.181818181818182,0.0,0.181818181818182,40.07844,-74.999002
AcademyRdMorrellAvMBFS,0.0833333333333333,0.0,0.0833333333333333,0.0,40.07731,-74.99992
AcademyRdNantonDr,0.7076923076923081,1.852777777777778,0.17692307692307702,0.4631944444444445,40.0947915,-74.968719
AcademyRdNewberryRd,0.0,0.0769230769230769,0.0,0.03846153846153845,40.092081,-74.981882
AcademyRdOutlookAv,0.0,0.0,0.0,0.0,40.059776,-75.009096
AcademyRdPresidentSt,0.0,0.153846153846154,0.0,0.05128205128205133,40.07510166666666,-75.001546
AcademyRdRedLionRd,2.36805555555556,1.069444444444445,0.473611111111112,0.21388888888888902,40.080679599999996,-74.9960978
AcademyRdRyanDrNorth,0.722222222222222,0.333333333333333,0.361111111111111,0.1666666666666665,40.086457,-74.986626
AcademyRdRyanHighSchoolSouthEntrance,0.5,0.0,0.25,0.0,40.084866,-74.988434
AcademyRdTorreyRd,0.0,0.125,0.0,0.125,40.096398,-74.971182
AcademyRdWoodhavenRd,0.0,0.0,0.0,0.0,40.093432,-74.980182
AcademyRdWoodhavenRdFS,0.0,0.4,0.0,0.2,40.093522,-74.980477
AdamsAvArrottSt,0.75,0.375,0.75,0.375,40.023271,-75.095082
AdamsAvBinghamSt,0.571428571428571,0.285714285714286,0.2857142857142855,0.142857142857143,40.035507,-75.108669
AdamsAvCastorAvFS,0.0,0.125,0.0,0.125,40.021242,-75.093992
AdamsAvFoulkrodSt,1.23076923076923,0.692307692307692,1.23076923076923,0.692307692307692,40.035283,-75.108409
AdamsAvHillCreekDr,0.0,0.142857142857143,0.0,0.0714285714285715,40.0374,-75.109157
AdamsAvHillCreekDrFS,0.461538461538462,0.307692307692308,0.461538461538462,0.307692307692308,40.037239,-75.108909
AdamsAvMontourSt,3.395604395604394,1.4615384615384621,1.1318681318681314,0.4871794871794874,40.03181266666667,-75.105536
AdamsAvOrthodoxSt,0.111111111111111,0.625,0.0555555555555555,0.3125,40.019619,-75.094485
AdamsAvRamonaAv,0.833333333333333,0.25,0.833333333333333,0.25,40.024004,-75.095354
AdamsAvRisingSunAv,0.923076923076923,0.538461538461538,0.923076923076923,0.538461538461538,40.039089,-75.109906
AdamsAvRisingSunAvFS,0.714285714285714,0.285714285714286,0.357142857142857,0.142857142857143,40.03875,-75.109884
AdamsAvRooseveltBlvd,0.8333333333333333,0.0833333333333333,0.41666666666666663,0.04166666666666665,40.025971,-75.096878
AdamsAvRooseveltBlvdFS,0.25,0.25,0.25,0.25,40.025703,-75.096998
AdamsAvTaborRd,1.736263736263739,0.296703296703297,0.5787545787545797,0.098901098901099,40.03314,-75.10693333333334
AdamsAvWhitakerAv,0.142857142857143,0.42857142857142894,0.0714285714285715,0.21428571428571447,40.030586,-75.104092
AdamsAvWhitakerAvFS,0.416666666666667,0.166666666666667,0.416666666666667,0.166666666666667,40.030792,-75.10415
AdamsRdAdamsCr,0.32692307692307687,1.92307692307692,0.16346153846153844,0.96153846153846,40.108674,-74.92308299999999
AdamsRdByberryRd,0.0,0.0,0.0,0.0,40.110117,-74.926665
AdamsRdFordRd,0.0,1.0,0.0,1.0,40.106434,-74.920844
AdamsRdFordRdFS,0.0,0.2,0.0,0.2,40.106406,-74.920679
AiryStArchStFS,0.166666666666667,0.333333333333333,0.166666666666667,0.333333333333333,40.114239,-75.338508
AiryStDeKalbStFS,0.527777777777778,0.29166666666666696,0.263888888888889,0.14583333333333348,40.115375,-75.341525
AiryStGreenSt,0.8611111111111109,0.111111111111111,0.43055555555555547,0.0555555555555555,40.114928,-75.340307
AiryStSwedeSt,0.3055555555555556,0.0555555555555556,0.1527777777777778,0.0277777777777778,40.116153,-75.343513
AlanWoodRdRidgePkMBFS,0.5,0.5,0.5,0.5,40.100533,-75.301665
AlburgerAvDarlingtonRd,0.875,0.625,0.875,0.625,40.097983,-75.059577
AlburgerAvSpringViewRd,0.375,0.5,0.375,0.5,40.09731,-75.055214
AlburgerAvSpringviewRd,0.909090909090909,0.727272727272727,0.909090909090909,0.727272727272727,40.097195,-75.055416
AlburgerAvVerreeRd,1.670454545454545,1.079545454545455,0.8352272727272725,0.5397727272727275,40.09482,-75.05079
AlburgerAvVerreeRdMBFS,0.642857142857143,1.64285714285714,0.642857142857143,1.64285714285714,40.09281,-75.048659
AlburgerAvWelshRd,0.41428571428571404,0.2714285714285714,0.20714285714285702,0.1357142857142857,40.092004,-75.047776
AlburgerAvWelshRdMBFS,0.5,0.375,0.5,0.375,40.092863,-75.048501
AlgonAvDevereauxAvFS,0.0625,0.3125,0.03125,0.15625,40.041565,-75.08769
AlgonAvDorcasSt,0.2,0.0,0.1,0.0,40.070473,-75.058808
AlgonAvFoxChaseRd,2.2,0.990909090909091,0.55,0.24772727272727274,40.07134,-75.0578395
AlgonAvGriffithSt,0.666666666666667,0.3,0.3333333333333335,0.15,40.064377,-75.064801
AlgonAvHartelAv,2.5,0.272727272727273,0.625,0.06818181818181825,40.062084,-75.0668765
AlgonAvHoffnagleSt,0.0,0.0,0.0,0.0,40.06944,-75.059713
AlgonAvHoffnagleStFS,1.66666666666667,0.4,0.833333333333335,0.2,40.069387,-75.059949
AlgonAvKrewstownRd,0.5,0.545454545454545,0.25,0.2727272727272725,40.07275,-75.056289
AlgonAvKrewstownRdFS,0.1,0.1,0.1,0.1,40.073009,-75.056205
AlgonAvLangdonSt,0.0,0.0,0.0,0.0,40.063166,-75.065789
AlgonAvLevickSt,0.125,0.125,0.0625,0.0625,40.043602,-75.085102
AlgonAvLoneySt,1.0909090909090908,0.0,0.5454545454545454,0.0,40.06451,-75.064505
AlgonAvNapfleAv,0.0,0.1,0.0,0.05,40.061012,-75.067976
AlgonAvRobbinsAv,0.0,0.0625,0.0,0.03125,40.04241,-75.086551
AlgonAvSollyAv,1.0,0.0,0.25,0.0,40.068146,-75.0611205
AlgonAvStanwoodSt,1.0,0.363636363636364,0.5,0.181818181818182,40.066984,-75.062185
AlgonAvStanwoodStFS,1.2,0.1,0.6,0.05,40.066967,-75.062339
AlgonAvStrahleSt,0.0909090909090909,0.272727272727273,0.04545454545454545,0.1363636363636365,40.070588,-75.058536
AlleghenyAvBroadSt,0.571428571428572,0.0,0.142857142857143,0.0,40.0015895,-75.1529045
AlleghenyAvKensingtonAv,0.285714285714286,0.642857142857143,0.142857142857143,0.3214285714285715,39.996481,-75.1137
AlleghenyAvMascherSt,0.5,0.4375,0.5,0.4375,39.998835,-75.131131
AlleghenyAvNapaSt,0.5,0.3,0.25,0.15,40.005074,-75.180491
AlleghenyAvRidgeAv,0.0,0.0,0.0,0.0,40.006115,-75.187685
AlleghenyAvThompsonSt,0.0,0.8125,0.0,0.40625,39.984735,-75.103012
AlleghenyAvTulipSt,0.25,0.0,0.25,0.0,39.989637,-75.107232
AlleghenyAvndSt,0.714285714285714,0.0,0.357142857142857,0.0,40.003224,-75.166057
AlleghenyAvthSt,0.785714285714286,0.25,0.13095238095238101,0.041666666666666664,40.002195,-75.15784416666666
AlleghenythSt,0.857142857142857,0.142857142857143,0.857142857142857,0.142857142857143,40.00431,-75.173451
AllendaleRdCrossfieldRd,0.357142857142857,0.142857142857143,0.357142857142857,0.142857142857143,40.095827,-75.390702
AllendaleRdElliottDr,0.611111111111111,1.25,0.2037037037037037,0.4166666666666667,40.093722,-75.38805666666667
AllendaleRdKeeblerRd,0.117647058823529,0.0,0.039215686274509665,0.0,40.09735033333333,-75.392894
AppleStHectorSt,0.3,0.3,0.3,0.3,40.073779,-75.297206
AramingoAvAlleghenyAvdetour,0.35,0.75,0.175,0.375,39.988412,-75.106445
AramingoAvAnnStdetour,0.4,1.2,0.4,1.2,39.985694,-75.11168
AramingoAvBirchStFSdetour,0.0,0.0,0.0,0.0,39.98589,-75.111513
AramingoAvCambriaStdetour,0.2,0.65,0.1,0.325,39.9848465,-75.113414
AramingoAvClearfieldStdetour,0.5,1.916666666666663,0.16666666666666666,0.6388888888888876,39.98727866666667,-75.10880533333334
AramingoAvHuntingdonStdetour,0.272727272727273,0.545454545454545,0.272727272727273,0.545454545454545,39.978759,-75.118621
AramingoAvLehighAvtdetour,0.222222222222222,0.222222222222222,0.222222222222222,0.222222222222222,39.981362,-75.117441
AramingoAvSomersetStdetour,0.0,0.111111111111111,0.0,0.111111111111111,39.983429,-75.115683
AramingoAvVenangoSt,0.666666666666666,0.666666666666667,0.222222222222222,0.22222222222222232,39.993356,-75.09705333333333
AramingoAvYorkStFS,0.0,0.0,0.0,0.0,39.975462,-75.120762
ArchRdElizabethDrFS,0.4,0.2,0.4,0.2,40.134625,-75.306943
ArcolaRdCampusDr,0.5714285714285714,0.0,0.2857142857142857,0.0,40.158851,-75.465824
ArcolaRdSpringhouseDr,1.892857142857143,0.0,0.630952380952381,0.0,40.16340966666667,-75.47310966666667
ArdmoreAvStationNHSL,0.0,0.0,0.0,0.0,39.999864,-75.309479
ArdmoreJunctionStation,0.0,0.75,0.0,0.375,39.996145,-75.3029035
ArdmoreJunctionStationNHSL,0.0,0.75,0.0,0.75,39.996262,-75.303789
ArleansAvLincolnHwy,0.125,0.375,0.125,0.375,40.190587,-74.8315
ArleansAvLincolnHwyMBFS,0.0,0.125,0.0,0.125,40.189275,-74.831559
ArleansAvLincolnHwyMBNS,0.0714285714285714,0.0,0.0357142857142857,0.0,40.189247,-74.831393
ArrottStAdamsAv,0.583333333333333,0.666666666666667,0.583333333333333,0.666666666666667,40.023261,-75.094799
ArtMuseumDrBackEntrance,0.0,0.0,0.0,0.0,39.966352,-75.181972
ArtMuseumDrKellyDrMBFS,0.5,1.1,0.25,0.55,39.966526,-75.180035
ArtMuseumDrKellyDrMBNS,0.0,0.0,0.0,0.0,39.966348,-75.179964
AshbourneRdArborRd,0.0,0.4,0.0,0.4,40.05993,-75.106679
AshbourneRdBoyerRd,0.458333333333333,0.533333333333333,0.2291666666666665,0.2666666666666665,40.060686,-75.105741
AshbourneRdBoyerRdFS,0.0,0.4,0.0,0.4,40.060706,-75.105908
AshbourneRdCroydenRd,0.1916666666666667,0.133333333333333,0.09583333333333335,0.0666666666666665,40.061319,-75.105123
AshbourneRdCroydenRdFS,0.0,0.0,0.0,0.0,40.061388,-75.105227
AshbourneRdFosterRd,1.2166666666666668,0.458333333333333,0.4055555555555556,0.15277777777777765,40.06111833333333,-75.09860866666666
AshbourneRdFrontSt,0.0,0.0666666666666667,0.0,0.03333333333333335,40.059868,-75.106915
AshbourneRdJenkintownRd,0.625,0.95,0.20833333333333334,0.31666666666666665,40.06203933333333,-75.104276
AshbourneRdOakHillDr,0.125,0.5,0.041666666666666664,0.16666666666666666,40.06188766666667,-75.09984566666667
AshbourneRdRollingGreenRd,0.0666666666666667,0.266666666666667,0.02222222222222223,0.088888888888889,40.062116333333336,-75.10298666666667
AshbourneRdRowlandAv,0.325,0.533333333333333,0.10833333333333334,0.17777777777777767,40.060054,-75.09713
AshbourneRdWalthamRd,0.375,1.3375,0.125,0.4458333333333333,40.06198933333334,-75.10108666666666
AshburnerStHegermanSt,0.714285714285714,0.0714285714285714,0.714285714285714,0.0714285714285714,40.039425,-75.014182
AshburnerStTorresdaleAv,0.142857142857143,0.0714285714285714,0.142857142857143,0.0714285714285714,40.040312,-75.015288
AshburnerStTorresdaleAvFS,0.0,0.0714285714285714,0.0,0.0357142857142857,40.040178,-75.015324
AshlandAvMacDadeBlvd,0.235294117647059,0.588235294117647,0.235294117647059,0.588235294117647,39.905297,-75.292608
AshtonRdGrantAv,0.0,0.0,0.0,0.0,40.071857,-75.013237
AshtonRdGrantAvFS,0.153846153846154,0.0769230769230769,0.153846153846154,0.0769230769230769,40.071839,-75.013461
AshtonRdGrantAvMBFS,0.0,0.0,0.0,0.0,40.070265,-75.014973
AshtonRdHolmeCir,0.0,0.0,0.0,0.0,40.056813,-75.028414
AshtonRdHolmeCirFS,0.0,0.0,0.0,0.0,40.056973,-75.028106
AshtonRdJennyPl,0.181818181818182,0.642857142857143,0.06060606060606066,0.21428571428571433,40.05827766666667,-75.026912
AshtonRdJennyPlMBFS,0.0,0.0,0.0,0.0,40.058983,-75.026096
AshtonRdMaxwellSt,0.0,0.3496503496503499,0.0,0.11655011655011664,40.061362333333335,-75.02376433333333
AshtonRdNorcrossLn,0.153846153846154,0.0769230769230769,0.153846153846154,0.0769230769230769,40.068494,-75.016757
AshtonRdNorcrossLnFS,0.0,0.0,0.0,0.0,40.068529,-75.01658
AshtonRdOldAshtonRd,0.0,0.0,0.0,0.0,40.057721,-75.02751
AshtonRdRyersonRd,0.0,0.166666666666667,0.0,0.04166666666666675,40.06453500000001,-75.0205825
AshtonRdSaxtonRdMBFS,0.0,0.0833333333333333,0.0,0.04166666666666665,40.070255,-75.014843
AshtonRdTolbutSt,0.0,0.0,0.0,0.0,40.060505,-75.024704
AshtonRdTolbutStFS,0.0,0.0909090909090909,0.0,0.0909090909090909,40.060567,-75.024455
AshtonRdTolbutStMBFS,0.0,0.0,0.0,0.0,40.059037,-75.02619
AshtonRdTremontSt,0.230769230769231,0.7637362637362634,0.076923076923077,0.25457875457875445,40.062628333333336,-75.022492
AshtonRdWoodbridgeRd,0.357142857142857,0.0,0.119047619047619,0.0,40.066403666666666,-75.01873666666667
AspenStLancasterAv,0.0,0.5,0.0,0.5,39.966023,-75.206754
AspenStPrestonSt,0.428571428571429,0.0,0.428571428571429,0.0,39.96625,-75.203847
AspenStndStFS,0.0,0.5,0.0,0.5,39.965943,-75.207751
AspenStrdSt,0.555555555555556,3.22222222222222,0.555555555555556,3.22222222222222,39.965832,-75.209388
AspenStstSt,0.142857142857143,0.714285714285714,0.142857142857143,0.714285714285714,39.966128,-75.205454
AspenStthSt,1.545454545454546,0.7159090909090909,0.3863636363636365,0.17897727272727273,39.965631,-75.21204
AvoftheStatesthSt,0.428571428571429,1.28571428571429,0.428571428571429,1.28571428571429,39.850744,-75.360919
AvoftheStatesthStFS,2.2678571428571397,1.375,1.1339285714285698,0.6875,39.85219,-75.360776
BStFlintHillRdFS,0.45,0.0,0.225,0.0,40.087877,-75.331029
BainbridgeStndSt,0.111111111111111,0.111111111111111,0.0555555555555555,0.0555555555555555,39.944364,-75.178955
BalaAvHighlandAv,0.411764705882353,0.5882352941176467,0.2058823529411765,0.2941176470588234,40.00505,-75.232129
BalaAvMontgomeryAv,0.0,0.25,0.0,0.125,40.0064025,-75.23235
BalaAvUnionAv,1.035714285714286,2.1655844155844157,0.34523809523809534,0.7218614718614719,40.00315033333334,-75.23119833333334
BaltimoreAvArdmoreAv,0.333333333333333,0.0,0.1666666666666665,0.0,39.937009,-75.278592
BaltimoreAvBroomallSt,0.0,0.0,0.0,0.0,39.947727,-75.227912
BaltimoreAvBurmontRdFS,0.0,0.0,0.0,0.0,39.934624,-75.284665
BaltimoreAvChurchSt,0.0,0.0,0.0,0.0,39.928242,-75.300225
BaltimoreAvEdgemontAvMBFS,0.0,1.0,0.0,1.0,39.932025,-75.29101
BaltimoreAvFlorenceAv,0.0,2.5,0.0,2.5,39.948312,-75.219503
BaltimoreAvHighlandAv,0.0,0.0,0.0,0.0,39.938632,-75.270654
BaltimoreAvJacksonStFS,0.0,0.0,0.0,0.0,39.934206,-75.28613
BaltimoreAvMarpleAv,0.0,0.0,0.0,0.0,39.932951,-75.28899
BaltimoreAvMartinDrFS,0.0,0.0909090909090909,0.0,0.04545454545454545,39.936538,-75.280647
BaltimoreAvRigbyAv,0.125,1.0,0.125,1.0,39.93895,-75.268056
BaltimoreAvRunnemedeAv,0.0,0.0,0.0,0.0,39.93771,-75.275249
BaltimoreAvSpringfieldRd,0.0,0.666666666666667,0.0,0.666666666666667,39.929301,-75.297048
BaltimoreAvSycamoreAv,0.0,1.0,0.0,1.0,39.928633,-75.299044
BaltimoreAvWycombeAv,0.0,0.375,0.0,0.375,39.938657,-75.269627
BaltimoreAvndSt,1.625,3.5,0.40625,0.875,39.94882025,-75.217207
BaltimoreAvrdSt,1.0,1.75,0.16666666666666666,0.2916666666666667,39.948391,-75.22272199999999
BaltimoreAvstSt,0.5,0.458333333333333,0.125,0.11458333333333325,39.9477725,-75.22536099999999
BaltimoreAvthSt,8.778846153846153,18.842948717948726,0.2438568376068376,0.5234152421652424,39.94718458333333,-75.23007375
BaltimorePikeGrandviewRd,0.0,0.0,0.0,0.0,39.914079,-75.372566
BaltimorePikeJacksonSt,0.0,0.0,0.0,0.0,39.916915,-75.389584
BaltimorePikeSloanLnFS,0.0,0.0,0.0,0.0,39.914777,-75.377216
BaltimorePikeStateSt,0.0,0.0,0.0,0.0,39.918006,-75.397398
BaltimorePkAndrewRdFS,0.111111111111111,0.5,0.0555555555555555,0.25,39.921515,-75.320918
BaltimorePkArdmoreAv,0.0,0.222222222222222,0.0,0.222222222222222,39.936821,-75.278734
BaltimorePkBeattyRd,0.0,0.0,0.0,0.0,39.91501,-75.378916
BaltimorePkChurchRdNS,0.583333333333333,2.833333333333333,0.2916666666666665,1.4166666666666665,39.915113,-75.339836
BaltimorePkChurchSt,0.222222222222222,0.5,0.111111111111111,0.25,39.928037,-75.30032
BaltimorePkDiamondSt,0.0,0.0,0.0,0.0,39.929834,-75.295465
BaltimorePkEdgemontAvMBNS,0.111111111111111,0.0,0.111111111111111,0.0,39.931953,-75.290751
BaltimorePkEdgmontSt,0.0,0.222222222222222,0.0,0.111111111111111,39.916253,-75.386079
BaltimorePkElwynRd,0.0,0.0,0.0,0.0,39.916829,-75.404669
BaltimorePkGladstoneRd,0.0,0.0,0.0,0.0,39.936457,-75.280423
BaltimorePkGrandviewRd,0.666666666666667,1.33333333333333,0.666666666666667,1.33333333333333,39.913972,-75.372885
BaltimorePkGraniteRunDrFS,0.0,0.0,0.0,0.0,39.913958,-75.433917
BaltimorePkGraniteRunRd,0.5,0.5,0.5,0.5,39.913663,-75.434283
BaltimorePkHomesteadAv,0.0,0.0,0.0,0.0,39.923108,-75.316513
BaltimorePkHomesteadAvFS,0.222222222222222,0.0,0.111111111111111,0.0,39.923045,-75.316194
BaltimorePkJacksonSt,0.0,0.111111111111111,0.0,0.111111111111111,39.934054,-75.286012
BaltimorePkLeamyAv,0.0,0.0,0.0,0.0,39.918844,-75.328984
BaltimorePkLehannCr,0.0,0.0,0.0,0.0,39.92065133333333,-75.32355566666666
BaltimorePkLemonSt,0.0,0.0,0.0,0.0,39.917559,-75.395474
BaltimorePkManchesterAv,0.0,0.0,0.0,0.0,39.915877,-75.383377
BaltimorePkMarpleAvFS,0.333333333333333,0.0,0.333333333333333,0.0,39.932924,-75.288695
BaltimorePkMonroeSt,0.0,0.0,0.0,0.0,39.91656566666666,-75.38797133333334
BaltimorePkNorthAv,0.0,0.0,0.0,0.0,39.92370433333333,-75.31424133333333
BaltimorePkNorwindenDr,0.0,0.0,0.0,0.0,39.921622,-75.321001
BaltimorePkOliveSt,0.0,0.0,0.0,0.0,39.917004,-75.391414
BaltimorePkOrangeSt,1.0,0.333333333333333,0.5,0.1666666666666665,39.917264,-75.393397
BaltimorePkRadnorSt,0.0,0.0,0.0,0.0,39.916029,-75.384486
BaltimorePkRiverviewRdMBNS,0.0833333333333333,1.25,0.04166666666666665,0.625,39.914481,-75.342575
BaltimorePkRunnemedeAvFS,0.0,0.125,0.0,0.125,39.93754,-75.27532
BaltimorePkSaxerAv,0.0,0.0,0.0,0.0,39.919859,-75.325713
BaltimorePkSaxerAvFS,0.0,0.333333333333333,0.0,0.333333333333333,39.919966,-75.325795
BaltimorePkSchoolLn,0.0,0.0,0.0,0.0,39.916331,-75.415587
BaltimorePkScottdaleRd,0.0,0.333333333333333,0.0,0.333333333333333,39.934588,-75.284134
BaltimorePkSpringfieldRdFS,0.111111111111111,0.0,0.111111111111111,0.0,39.929265,-75.296753
BaltimorePkSycamoreAv,0.0,0.222222222222222,0.0,0.222222222222222,39.928482,-75.299021
BaltimorePkWestAv,0.0,0.333333333333333,0.0,0.111111111111111,39.922336333333334,-75.31867
BaltimorePkWindemereAv,0.0,0.0,0.0,0.0,39.937176,-75.27695
BaltimorePkWindermereAv,0.0,0.0,0.0,0.0,39.937355,-75.276915
BanesStScotchbrookDr,0.2714285714285714,0.485714285714286,0.1357142857142857,0.242857142857143,40.083255,-75.041327
BaringStrdStFS,0.0625,0.125,0.03125,0.0625,39.961619,-75.189914
BaringStthSt,1.875,1.125,0.3125,0.1875,39.96133016666667,-75.19211916666667
BaringStthStFS,0.0,0.0,0.0,0.0,39.960906,-75.195219
BartramAvIslandRdMBFS,0.0,0.0588235294117647,0.0,0.0588235294117647,39.893679,-75.239344
BartramAvthStMBFS,0.0,1.41176470588235,0.0,1.41176470588235,39.893154,-75.239806
BathStBuckleySt,0.153846153846154,0.0,0.076923076923077,0.0,40.099183,-74.861658
BathStHowellSt,0.230769230769231,0.0,0.230769230769231,0.0,40.10083,-74.862722
BathStHowellStMBFS,0.0,0.0,0.0,0.0,40.101286,-74.862801
BathStMifflinSt,0.0714285714285714,0.0714285714285714,0.0714285714285714,0.0714285714285714,40.099479,-74.861963
BathStOtterStFS,0.153846153846154,0.0,0.153846153846154,0.0,40.097465,-74.86076
BattersbyStHarbisonAv,0.6,0.133333333333333,0.6,0.133333333333333,40.029731,-75.062625
BattersbyStHellermanSt,0.25833333333333297,0.0,0.12916666666666649,0.0,40.0319025,-75.0604855
BattersbyStLevickSt,0.38333333333333297,0.75,0.19166666666666649,0.375,40.0306655,-75.061674
BattersbyStMaGeeAvFS,0.533333333333333,0.0666666666666667,0.533333333333333,0.0666666666666667,40.03306,-75.05951
BattersbyStMageeSt,0.25,0.0,0.25,0.0,40.033051,-75.059309
BayntonStArmatSt,0.4,0.5,0.1,0.125,40.038077,-75.170575
BayntonStChurchLn,0.0,0.0769230769230769,0.0,0.03846153846153845,40.037109,-75.16864
BayntonStMortonStFS,1.45,0.25,0.725,0.125,40.037226,-75.168746
BearHillRdCentralAv,0.428571428571429,0.0714285714285714,0.428571428571429,0.0714285714285714,40.04537,-75.475274
BearHillRdCentralAvFS,1.5,0.153846153846154,0.75,0.076923076923077,40.04503,-75.475498
BearHillRdDaylesfordBlvd,0.642857142857143,0.0,0.642857142857143,0.0,40.056438,-75.472336
BearHillRdDaylesfordBlvdMBFS,1.125,0.384615384615385,0.5625,0.1923076923076925,40.057295,-75.471875
BeaverDamRdLakelandAv,0.0,0.85,0.0,0.425,40.116231,-74.853853
BeaverDamRdPlymouthAv,0.0,0.0,0.0,0.0,40.118995,-74.851238
BeaverDamRdSchumacherDr,0.0,0.0,0.0,0.0,40.113939,-74.854179
BeaverDamRdVeniceAvFS,0.0,0.0,0.0,0.0,40.113958,-74.854392
BeaverStCanalSt,0.1,1.25,0.05,0.625,40.10062,-74.85586
BeaverStCanalStFS,0.0,0.0,0.0,0.0,40.100693,-74.856049
BeaverStGardenStMBNS,0.0,0.1,0.0,0.05,40.104332,-74.855558
BeaverStPointSt,0.0,0.0,0.0,0.0,40.102352,-74.855917
BeaverStPondSt,0.0,0.0,0.0,0.0,40.098596,-74.85616
BeaverStthStFS,0.0,0.0,0.0,0.0,40.108043,-74.855043
BeechDrMapleSt,1.3051948051948008,0.0909090909090909,0.6525974025974004,0.04545454545454545,40.134575,-75.356371
BeechDrSpruceStFS,0.4224598930481287,0.176470588235294,0.21122994652406435,0.088235294117647,40.13602,-75.354606
BeechwoodBrooklineStationNHSL,0.0,2.0,0.0,2.0,39.986485,-75.291484
BelfieldAvArmstrongSt,0.5,1.0,0.25,0.5,40.0368335,-75.160465
BelfieldAvArmstrongStMBFS,0.25,0.0,0.25,0.0,40.036979,-75.161759
BelfieldAvArmstrongStMBNS,0.0,0.1875,0.0,0.09375,40.036854,-75.161783
BelfieldAvChurchLn,0.4,0.0,0.2,0.0,40.037464,-75.167598
BelfieldAvChurchLnMBNS,0.1,0.5,0.05,0.25,40.037175,-75.165825
BelfieldAvPennSt,0.25,0.307692307692308,0.08333333333333333,0.10256410256410266,40.036841333333335,-75.164183
BelfieldAvPennStMBNS,0.5,0.0,0.25,0.0,40.037032,-75.165767
BelfieldAvWisterSt,0.0,0.0,0.0,0.0,40.036642,-75.158521
BelfieldAvWisterStFS,0.0,0.75,0.0,0.75,40.036758,-75.158721
BelfieldAvthSt,0.5,2.5,0.5,2.5,40.036279,-75.155815
BelfieldAvthStFS,0.0,0.25,0.0,0.25,40.036386,-75.155767
BelgradeStIndianaAvdetour,0.0,0.361111111111111,0.0,0.1805555555555555,39.984063,-75.108757
BelgradeStLehighAvdetour,0.5,1.0,0.5,1.0,39.980243,-75.116063
BellevueAvComlyRdFS,0.181818181818182,0.0,0.181818181818182,0.0,40.161088,-74.91258
BellevueAvHighlandAvFS,0.0909090909090909,0.0,0.0909090909090909,0.0,40.167251,-74.915662
BellevueAvLincolnHwyFS,0.428571428571429,0.142857142857143,0.428571428571429,0.142857142857143,40.158409,-74.912149
BellevueAvParkAv,0.704545454545455,0.0909090909090909,0.234848484848485,0.0303030303030303,40.163537,-74.91332833333334
BellevueAvPineSt,0.0,0.266666666666667,0.0,0.1333333333333335,40.167357,-74.915448
BellvueAvComlyAvMBNS,0.0,0.333333333333333,0.0,0.1666666666666665,40.160891,-74.912332
BelmontAvBelmontMansionDr,0.43939393939394,0.111111111111111,0.21969696969697,0.0555555555555555,39.992897,-75.217552
BelmontAvConshohockenAv,0.3409090909090909,1.705194805194801,0.08522727272727272,0.42629870129870023,39.999902,-75.21953450000001
BelmontAvConshohockenAvFS,1.625,0.355769230769231,0.8125,0.1778846153846155,39.999335,-75.219447
BelmontAvEdgelyAv,0.621212121212122,0.0555555555555556,0.310606060606061,0.0277777777777778,39.994263,-75.217914
BelmontAvFairmountParkDr,0.111111111111111,0.666666666666667,0.111111111111111,0.666666666666667,39.993031,-75.217741
BelmontAvFordRd,1.142857142857143,1.119047619047619,0.5714285714285715,0.5595238095238095,40.002094,-75.220054
BelmontAvHayesManorDrFS,3.242424242424243,1.196969696969697,1.6212121212121215,0.5984848484848485,39.997549,-75.218826
BelmontAvLansdowneDr,0.0,0.727272727272727,0.0,0.3636363636363635,39.982174,-75.214772
BelmontAvLansdowneDrFS,0.547619047619047,0.5,0.2738095238095235,0.25,39.982048,-75.214572
BelmontAvLeidySt,0.142857142857143,0.285714285714286,0.0714285714285715,0.142857142857143,39.975941,-75.212877
BelmontAvMantuaAv,0.722222222222222,0.333333333333333,0.722222222222222,0.333333333333333,39.972467,-75.211955
BelmontAvMontgomeryDr,0.4047619047619044,0.214285714285714,0.2023809523809522,0.107142857142857,39.985575,-75.215589
BelmontAvMonumentRd,0.181818181818182,0.1409090909090909,0.090909090909091,0.07045454545454545,39.995469,-75.218431
BelmontAvMonumentRdFS,0.0,0.714285714285714,0.0,0.357142857142857,39.995683,-75.218336
BelmontAvMonumentRdMBNS,1.69285714285714,0.8051948051948049,0.5642857142857133,0.2683982683982683,39.99736766666667,-75.21892166666667
BelmontAvParksideAv,0.444444444444444,0.888888888888889,0.444444444444444,0.888888888888889,39.994523,-75.218174
BelmontAvSConcourseDr,1.045454545454545,1.597402597402593,0.26136363636363624,0.39935064935064823,39.979419,-75.213918
BelmontAvSGeorgesHillDr,0.25,1.16666666666667,0.25,1.16666666666667,39.985861,-75.215824
BelmontAvSherwoodRd,0.222222222222222,0.555555555555556,0.222222222222222,0.555555555555556,40.001737,-75.220173
BelmontAvSherwoodRdMBFS,0.888888888888889,0.333333333333333,0.888888888888889,0.333333333333333,40.000996,-75.219939
BelmontAvThompsonSt,0.214285714285714,0.142857142857143,0.107142857142857,0.0714285714285715,39.974601,-75.212527
BelmontAvViolaSt,0.142857142857143,0.416666666666667,0.0714285714285715,0.2083333333333335,39.976602,-75.21323
BelmontAvWestminsterAv,0.714285714285714,1.714285714285715,0.1785714285714285,0.42857142857142877,39.969615000000005,-75.21152000000001
BelmontAvWyalusingAv,0.5714285714285721,1.321428571428571,0.14285714285714302,0.33035714285714274,39.971365,-75.2118455
BenFranklinPkwyndSt,0.0909090909090909,0.909090909090909,0.04545454545454545,0.4545454545454545,39.96101,-75.17533
BenFranklinPkwystSt,1.056818181818182,0.488636363636364,0.528409090909091,0.244318181818182,39.959918,-75.173845
BenFranklinPkwythSt,0.0,0.25,0.0,0.125,39.959032,-75.172668
BensalemBlvdAlvinAv,0.0,0.0,0.0,0.0,40.105215,-74.915397
BensalemBlvdFarleyRd,0.0,0.5,0.0,0.5,40.105695,-74.914873
BensalemBlvdFlushingRd,0.0,1.0,0.0,1.0,40.114579,-74.909069
BensalemBlvdFlushingRdFS,0.0,0.0,0.0,0.0,40.114687,-74.909175
BensalemBlvdGibsonRd,0.25,0.5,0.25,0.5,40.120145,-74.905975
BensalemBlvdGibsonRdFS,0.0,0.0,0.0,0.0,40.120253,-74.906163
BensalemBlvdJasonDr,0.0,0.461538461538462,0.0,0.461538461538462,40.108411,-74.91328
BensalemBlvdMtVernonDr,0.0,0.0,0.0,0.0,40.110672,-74.911867
BensalemBlvdMtVernonRdFS,0.0,1.25,0.0,1.25,40.110662,-74.911559
BensalemBlvdNewFallsRdFS,0.0,0.384615384615385,0.0,0.384615384615385,40.12362,-74.904481
BensalemBlvdPortsideDr,0.0,0.0,0.0,0.0,40.113512,-74.909988
BensalemBlvdRobertsRd,0.0,0.25,0.0,0.25,40.099313,-74.919108
BerksStAmericanSt,0.825,1.1434210526315791,0.20625,0.2858552631578948,39.979307000000006,-75.13868450000001
BerksStFrontSt,1.131578947368421,1.089473684210526,0.5657894736842105,0.544736842105263,39.97859,-75.133672
BerksStGermantownAv,0.863157894736842,0.421052631578947,0.287719298245614,0.14035087719298234,39.979913333333336,-75.14345633333333
BerksStMascherSt,0.2821862348178139,0.2834008097165994,0.07054655870445348,0.07085020242914986,39.978907,-75.1354785
BerksStndSt,1.2776315789473685,0.643218623481782,0.3194078947368421,0.1608046558704455,39.979147999999995,-75.1374385
BerksStrdSt,2.1584008097165994,0.696356275303643,0.5396002024291499,0.17408906882591074,39.9794975,-75.139995
BerksStthSt,6.63408039329092,3.553744939271256,0.6030982175719019,0.3230677217519324,39.979836454545456,-75.14269390909091
BethelRdChelseaPkwyFS,0.111111111111111,0.181818181818182,0.0555555555555555,0.090909090909091,39.849495,-75.448724
BethelRdFeltonAvFS,0.125,0.375,0.125,0.375,39.844369,-75.398068
BethelRdFeltonStFS,0.9222222222222219,0.277777777777778,0.46111111111111097,0.138888888888889,39.844387,-75.397785
BethelRdHighlandAvMBFS,0.666666666666667,0.166666666666667,0.666666666666667,0.166666666666667,39.843014,-75.401794
BethelRdHighlandAvMBNS,0.142857142857143,0.25,0.0714285714285715,0.125,39.84313,-75.4019
BethelRdHonanSt,1.053571428571429,0.125,0.5267857142857145,0.0625,39.843718,-75.399259
BethlehemPkBannockburnAv,0.533333333333333,0.333333333333333,0.533333333333333,0.333333333333333,40.148279,-75.212615
BethlehemPkBellsMillRd,0.823529411764706,0.3088235294117647,0.411764705882353,0.15441176470588236,40.087301,-75.213309
BethlehemPkBysherAv,0.4,0.0714285714285714,0.2,0.0357142857142857,40.104554,-75.213115
BethlehemPkChesneyLn,0.5,0.616071428571429,0.16666666666666666,0.20535714285714302,40.09584866666666,-75.213291
BethlehemPkChurchStFS,1.0625,0.4375,1.0625,0.4375,40.151958,-75.213161
BethlehemPkCollegeAv,0.1875,0.3125,0.09375,0.15625,40.105054,-75.213385
BethlehemPkEMillRdMBNS,0.5,0.0,0.25,0.0,40.107223,-75.213485
BethlehemPkFarmarLn,2.46666666666667,0.40952380952380996,0.8222222222222233,0.13650793650793666,40.116395000000004,-75.214996
BethlehemPkFortHillDr,0.4,0.485714285714286,0.13333333333333333,0.161904761904762,40.131968,-75.215443
BethlehemPkGordonLn,0.5588235294117647,0.5588235294117647,0.27941176470588236,0.27941176470588236,40.090918,-75.214848
BethlehemPkHawsLnMBFS,0.5,0.0,0.25,0.0,40.09827,-75.212992
BethlehemPkHawsLnMBNS,0.9,0.0714285714285714,0.45,0.0357142857142857,40.098519,-75.21279
BethlehemPkHighlandAv,1.4,2.371428571428571,0.4666666666666666,0.7904761904761903,40.15050166666666,-75.21276266666668
BethlehemPkJonesAv,0.25,0.0,0.125,0.0,40.100876,-75.212877
BethlehemPkJonesAvFS,0.285714285714286,0.5,0.142857142857143,0.25,40.100911,-75.212688
BethlehemPkMillRd,0.0666666666666667,0.266666666666667,0.03333333333333335,0.1333333333333335,40.107857,-75.213779
BethlehemPkSkippackPk,0.4,0.4,0.4,0.4,40.122572,-75.217345
BethlehemPkStationAv,0.733333333333333,0.2714285714285714,0.24444444444444433,0.09047619047619047,40.13640266666667,-75.21316
BethlehemPkStentonAv,0.235294117647059,0.25,0.1176470588235295,0.125,40.086067,-75.212082
BethlehemPkSunnybrookRd,1.133333333333333,0.4,0.5666666666666665,0.2,40.112875,-75.21451
BethlehemPkTownshipLineRd,0.0,0.0,0.0,0.0,40.3078505,-75.2998145
BethlehemPkWashingtonLn,0.285714285714286,0.428571428571429,0.142857142857143,0.2142857142857145,40.138925,-75.212324
BethlehemPkWissahickonAv,1.442857142857143,0.330357142857143,0.36071428571428577,0.08258928571428575,40.102549499999995,-75.2129315
BethlehemPkYeakelAv,0.0714285714285714,0.285714285714286,0.0714285714285714,0.285714285714286,40.093514,-75.213716
BethlehemPkYeakelAvFS,0.0,0.0625,0.0,0.03125,40.093568,-75.213905
BlackRockRdConshohockenState,0.272727272727273,0.0909090909090909,0.1363636363636365,0.04545454545454545,40.03954,-75.279853
BlvdofGeneralsGenWashingtonAv,0.705882352941177,0.470588235294118,0.705882352941177,0.470588235294118,40.124739,-75.400298
BlvdofGeneralsLafayetteAv,0.0588235294117647,0.117647058823529,0.0588235294117647,0.117647058823529,40.123221,-75.397766
BlvdofGeneralsTrooperRdMBNS,0.235294117647059,0.0588235294117647,0.235294117647059,0.0588235294117647,40.126828,-75.403766
BrennanBlvdMorehallRdMBFS,0.0,0.0,0.0,0.0,40.046228,-75.521886
BrewsterAvthStMBFS,0.25,0.916666666666667,0.125,0.4583333333333335,39.90311,-75.231861
BrewsterAvthStMBNS,1.1,0.1,0.55,0.05,39.903066,-75.232062
BridgeStEadomStFS,0.458333333333333,2.33333333333333,0.2291666666666665,1.166666666666665,40.010075,-75.0693495
BridgeStGaySt,0.0,0.571428571428571,0.0,0.2857142857142855,40.133771,-75.518352
BridgeStHarbisonAv,1.27272727272727,1.27272727272727,1.27272727272727,1.27272727272727,40.011831,-75.069997
BridgeStJacobsSt,0.3214285714285714,0.0714285714285714,0.1607142857142857,0.0357142857142857,40.136474,-75.506682
BridgeStMainSt,0.0,0.0,0.0,0.0,40.134031,-75.516032
BridgeStNorwoodStFS,0.0,0.0,0.0,0.0,40.138225,-75.503487
BridgeStSalmonSt,0.454545454545455,0.272727272727273,0.454545454545455,0.272727272727273,40.003348,-75.065691
BridgeStStarrSt,0.0,0.0,0.0,0.0,40.134489,-75.511806
BridgeStTulipStFS,0.0625,0.0,0.0625,0.0,40.011991,-75.069937
BridgeStWalnutSt,1.0,0.25,1.0,0.25,40.136126,-75.506918
BridgetownPkArborLn,0.153846153846154,0.0,0.153846153846154,0.0,40.15573,-74.997152
BridgetownPkBerthaSt,0.0,0.0,0.0,0.0,40.157643,-74.992829
BridgetownPkBerthaStFS,0.0,0.0,0.0,0.0,40.157679,-74.993019
BridgetownPkBuckRd,0.0,0.0,0.0,0.0,40.154668,-74.999858
BridgetownPkBustletonPkMBNS,0.0,0.0,0.0,0.0,40.154207,-75.000891
BridgetownPkElmwoodAv,0.0833333333333333,0.0833333333333333,0.0833333333333333,0.0833333333333333,40.159775,-74.989832
BridgetownPkHelenSt,0.0,0.0,0.0,0.0,40.156377,-74.99594
BridgetownPkHenryAv,0.0,0.2,0.0,0.1,40.159127,-74.990937
BridgetownPkJayStFS,1.5,0.625,1.5,0.625,40.154605,-74.999693
BridgetownPkLillianStFS,0.125,0.5,0.125,0.5,40.157245,-74.993898
BridgetownPkMiltonSt,0.0,0.0,0.0,0.0,40.156536,-74.995287
BridgetownPkMyrtleAv,0.3,0.0,0.3,0.0,40.158486,-74.991545
BridgetownPkRevereStFS,0.25,0.0833333333333333,0.125,0.04166666666666665,40.155403,-74.998243
BridgewaterDeerfield,0.0,0.0,0.0,0.0,40.105738,-74.927678
BridgewaterRdAlbertRd,0.222222222222222,0.5,0.111111111111111,0.25,39.859959,-75.392718
BridgewaterRdBensalemBlvdFS,0.0,0.0,0.0,0.0,40.097937,-74.920881
BridgewaterRdDeerfieldDr,0.0,0.25,0.0,0.25,40.105936,-74.928067
BridgewaterRdFordRd,0.0,0.0,0.0,0.0,40.107412,-74.928802
BridgewaterRdPowellRdFS,0.611111111111111,0.0,0.3055555555555555,0.0,39.858485,-75.389653
BridgewaterRdTraceDr,0.6,0.0,0.6,0.0,40.098451,-74.922297
BridgewaterRdWinchesterRd,0.5,1.45,0.25,0.725,40.102481999999995,-74.9258425
BristolOxfordValleyRdBorderRockRd,0.4,0.1,0.4,0.1,40.132338,-74.870783
BristolOxfordValleyRdCinderLn,0.1,0.0,0.1,0.0,40.1366,-74.873816
BristolPkAirportRdMBFS,0.0,0.2,0.0,0.1,40.123201,-74.840113
BristolPkAllenAvFS,0.166666666666667,0.166666666666667,0.0833333333333335,0.0833333333333335,40.092251,-74.920898
BristolPkAppletonAvMBFS,0.0,0.0,0.0,0.0,40.089116,-74.926919
BristolPkBensalemBlvd,0.25,0.0,0.125,0.0,40.091459,-74.923684
BristolPkButtonwoodAv,0.5,0.7,0.25,0.35,40.067479,-74.970941
BristolPkClarmontAv,0.0,3.82352941176471,0.0,3.82352941176471,40.074082,-74.960702
BristolPkEdgewoodAv,0.1,0.8,0.05,0.4,40.065436,-74.976194
BristolPkEdgleyRd,0.0,0.2,0.0,0.1,40.128985,-74.834477
BristolPkGrayAv,0.25,0.0714285714285714,0.125,0.0357142857142857,40.093251,-74.916489
BristolPkHauntedLn,0.153846153846154,0.0,0.076923076923077,0.0,40.093309,-74.915483
BristolPkHulmevilleRd,0.0,0.0,0.0,0.0,40.075088,-74.9588915
BristolPkI,0.0,0.0,0.0,0.0,40.121264,-74.842011
BristolPkKingsAvFS,0.25,0.25,0.25,0.25,40.075716,-74.956267
BristolPkKingsLn,0.0,4.76923076923077,0.0,4.76923076923077,40.069024,-74.968861
BristolPkParkAvFS,0.0,0.0,0.0,0.0,40.090641,-74.924553
BristolPkPennSt,0.0,0.75,0.0,0.375,40.070348,-74.967185
BristolPkStationAv,0.0,0.0,0.0,0.0,40.076153,-74.953697
BristolPkStreetRdFS,0.0,0.0,0.0,0.0,40.084787,-74.933716
BristolPkStreetRdMBNS,0.5,0.0,0.5,0.0,40.085081,-74.933667
BristolPkTennisAv,1.2,0.9,0.6,0.45,40.066486,-74.972769
BristolPkWildmanAvFS,0.0,1.35294117647059,0.0,1.35294117647059,40.076023,-74.954822
BristolRdChestnutAv,0.384615384615385,0.230769230769231,0.1923076923076925,0.1153846153846155,40.154837,-74.969398
BristolRdFultonAv,1.1875,1.145833333333333,0.3958333333333333,0.38194444444444436,40.151744,-74.96408100000001
BristolRdGroveAv,0.0,0.142857142857143,0.0,0.0714285714285715,40.148083,-74.960336
BristolRdGroveAvFS,0.0,0.0,0.0,0.0,40.147958,-74.960419
BristolRdHiltonAv,0.0,0.2,0.0,0.2,40.154845,-74.969161
BristolRdLonsdaleAv,0.2,0.0,0.2,0.0,40.153462,-74.966778
BristolRdMarshallAv,0.0,0.0,0.0,0.0,40.152716,-74.965492
BristolRdOldLincolnHwy,0.0,0.307692307692308,0.0,0.153846153846154,40.145022,-74.958118
BristolRdOldLincolnHwyFS,0.0,0.166666666666667,0.0,0.0833333333333335,40.145102,-74.958022
BristolRdOldLincolnHwyMBFS,0.0,0.2909090909090909,0.0,0.14545454545454545,40.146811,-74.959326
BristolRdPineSt,0.0,0.142857142857143,0.0,0.0714285714285715,40.14947,-74.961392
BristolRdPineStFS,0.0,0.0,0.0,0.0,40.149336,-74.961476
BristolRdSpruceAv,0.0769230769230769,0.0769230769230769,0.03846153846153845,0.03846153846153845,40.152942,-74.966177
BroadStAlleghenyAv,0.5,1.66666666666667,0.25,0.833333333333335,40.001705,-75.152957
BroadStConstitutionAv,0.0,0.0,0.0,0.0,39.891443,-75.176095
BroadStHartranftSt,0.8,0.866666666666667,0.8,0.866666666666667,39.907778,-75.172816
BroadStHatfieldSt,0.25,2.0,0.25,2.0,40.249147,-75.276129
BroadStIntrepidAv,0.363636363636364,0.636363636363636,0.363636363636364,0.636363636363636,39.894166,-75.176369
BroadStKittyHawkAv,0.25,1.0,0.25,1.0,39.890149,-75.175923
BroadStMainSt,0.0,0.4,0.0,0.2,40.241444,-75.283781
BroadStMainStFS,0.0,0.0,0.0,0.0,40.241675,-75.283472
BroadStOlneyAvMBNSlayover,0.111111111111111,0.555555555555556,0.0555555555555555,0.277777777777778,40.03844,-75.144563
BroadStOregonAv,0.75,1.0,0.75,1.0,39.916387,-75.171274
BroadStOregonAvFS,0.0,0.5,0.0,0.5,39.916423,-75.171616
BroadStPattisonAv,0.866666666666667,0.266666666666667,0.866666666666667,0.266666666666667,39.905639,-75.174216
BroadStSPennSquare,0.0,0.153846153846154,0.0,0.153846153846154,39.951437,-75.16372
BroadStthSt,0.0,1.0,0.0,0.5,40.2455,-75.279729
BrookhavenRdAllencrestLnFS,0.0,0.307692307692308,0.0,0.307692307692308,39.896918,-75.375625
BrookhavenRdBridgewaterRdMBFS,0.444444444444444,0.5,0.222222222222222,0.25,39.86261,-75.394344
BrookhavenRdBurkAv,1.28571428571429,0.714285714285714,1.28571428571429,0.714285714285714,39.871818,-75.388654
BrookhavenRdEngleDr,1.15384615384615,0.0769230769230769,1.15384615384615,0.0769230769230769,39.895089,-75.376759
BrookhavenRdGarnetLn,2.21538461538462,1.875,0.553846153846155,0.46875,39.886487,-75.3800275
BrookhavenRdGraySt,2.3968253968254007,3.571428571428571,0.7989417989418003,1.1904761904761905,39.867553666666666,-75.39279333333333
BrookhavenRdMooreRd,1.3483516483516482,1.3090659340659339,0.33708791208791206,0.32726648351648346,39.8838505,-75.38146800000001
BrookhavenRdMtVernonAv,2.650793650793652,1.64285714285714,0.883597883597884,0.5476190476190467,39.870545666666665,-75.39001966666666
BrookhavenRdProvidenceRd,0.923076923076923,0.153846153846154,0.923076923076923,0.153846153846154,39.898996,-75.373015
BrookhavenRdPutnamBlvdFS,0.355769230769231,1.25,0.1778846153846155,0.625,39.877823,-75.383555
BrookhavenRdRabbitRunRdFS,0.6857142857142859,0.214285714285714,0.34285714285714297,0.107142857142857,39.895098,-75.376936
BrookhavenRdTodmordenDr,0.0,0.2197802197802199,0.0,0.07326007326007329,39.88999733333333,-75.37956266666667
BrookhavenRdTodmordenDrFS,0.538461538461538,0.0,0.538461538461538,0.0,39.887835,-75.379725
BrookhavenRdWoodlandAvMBFS,0.222222222222222,0.0,0.111111111111111,0.0,39.869659,-75.391251
BrookhavenRdWoodlandAvMBNS,1.14285714285714,0.142857142857143,1.14285714285714,0.142857142857143,39.869383,-75.391262
BrooklineBlvdDarbyRdMBFS,0.0,0.0,0.0,0.0,39.979188,-75.302933
BrownStUnionSt,0.5,0.166666666666667,0.25,0.0833333333333335,39.967425,-75.20206
BrownStthSt,0.875,1.2083333333333333,0.14583333333333334,0.20138888888888887,39.967835,-75.198594
BrownsvilleRdAndrewsRd,0.0,0.6,0.0,0.6,40.153023,-74.973685
BrownsvilleRdBristolRd,0.0,0.0769230769230769,0.0,0.03846153846153845,40.155557,-74.971016
BrownsvilleRdClearviewAv,0.0,0.0,0.0,0.0,40.151715,-74.974937
BrownsvilleRdElizabethAv,0.0,0.0,0.0,0.0,40.15538,-74.971432
BrownsvilleRdMagnoliaAv,0.0,0.25,0.0,0.25,40.152951,-74.973579
BrownsvilleRdSomersAv,0.214285714285714,0.857142857142857,0.214285714285714,0.857142857142857,40.154152,-74.972411
BrownsvilleRdSycamoreAvFS,0.0,0.0,0.0,0.0,40.153699,-74.973088
BrynMawrStationNHSL,0.0,1.25,0.0,1.25,40.018004,-75.323407
BucksCountyTechnologyPark,0.25,0.2,0.0625,0.05,40.1361175,-74.98619400000001
BustletonAvBennerSt,1.425,0.583333333333333,0.7125,0.2916666666666665,40.031318999999996,-75.0730495
BustletonAvBentonSt,0.0,0.117647058823529,0.0,0.117647058823529,40.074799,-75.045987
BustletonAvBentonStFS,0.0,0.0,0.0,0.0,40.0748,-75.046341
BustletonAvBergenSt,0.0625,1.0,0.03125,0.5,40.069386,-75.050581
BustletonAvBergenStFS,0.46428571428571397,0.5,0.23214285714285698,0.25,40.069405,-75.050901
BustletonAvBleighAv,0.25,0.529411764705882,0.125,0.264705882352941,40.0497465,-75.05817049999999
BustletonAvBorbeckAv,0.0,0.0,0.0,0.0,40.056497500000006,-75.0533755
BustletonAvBowlerSt,0.0714285714285714,0.75,0.023809523809523798,0.25,40.09104966666667,-75.03271066666666
BustletonAvBridlePathLn,0.375,0.125,0.375,0.125,40.138458,-75.007379
BustletonAvBurgessSt,0.0,0.166666666666667,0.0,0.0833333333333335,40.114932,-75.021662
BustletonAvBurgessStFS,0.5,0.0,0.5,0.0,40.114771,-75.02158
BustletonAvByberryRd,0.0,0.670454545454545,0.0,0.22348484848484831,40.12367366666667,-75.015397
BustletonAvCheltenhamAv,0.636363636363636,0.545454545454545,0.636363636363636,0.545454545454545,40.027189,-75.075523
BustletonAvCheltenhamAvFS,0.625,0.125,0.625,0.125,40.027144,-75.07537
BustletonAvCountyLineRdMBFS,0.5,1.0625,0.25,0.53125,40.135996,-75.008104
BustletonAvCountyLineRdMBNS,0.222222222222222,0.222222222222222,0.222222222222222,0.222222222222222,40.136042,-75.008258
BustletonAvDeniseDr,0.0,0.0,0.0,0.0,40.126119,-75.014389
BustletonAvDeniseDrFS,0.25,0.0909090909090909,0.125,0.04545454545454545,40.126057,-75.014579
BustletonAvDoesLn,0.1,0.4,0.1,0.4,40.141881,-75.006068
BustletonAvDoltonRd,0.0,0.25,0.0,0.25,40.137931,-75.007394
BustletonAvFaunceSt,0.2,0.0666666666666667,0.1,0.03333333333333335,40.052235,-75.056035
BustletonAvForgeLnFS,0.0,0.0909090909090909,0.0,0.0909090909090909,40.145411,-75.004721
BustletonAvFoxChaseRd,0.0625,0.0,0.03125,0.0,40.067246,-75.051279
BustletonAvFrontSt,0.0,0.0,0.0,0.0,40.142058,-75.00583
BustletonAvFulmerSt,0.0666666666666667,0.2,0.03333333333333335,0.1,40.088241,-75.0346275
BustletonAvGiffordSt,0.0,0.0833333333333333,0.0,0.04166666666666665,40.111272,-75.024357
BustletonAvGlendaleAvFS,0.0,0.0666666666666667,0.0,0.0666666666666667,40.054813,-75.054123
BustletonAvGormanSt,0.75,0.25,0.75,0.25,40.105169,-75.027788
BustletonAvGormanStFS,0.0,0.0588235294117647,0.0,0.02941176470588235,40.105231,-75.027504
BustletonAvGrantAv,1.232142857142857,1.625,0.6160714285714285,0.8125,40.086017,-75.036994
BustletonAvGrantAvFS,0.176470588235294,0.0,0.176470588235294,0.0,40.085782,-75.036877
BustletonAvHartelAv,0.0,1.0,0.0,1.0,40.054893,-75.053946
BustletonAvHazellLn,0.0,0.0,0.0,0.0,40.126841,-75.014207
BustletonAvHellermanSt,0.2,0.588235294117647,0.06666666666666667,0.196078431372549,40.03686066666667,-75.06929933333333
BustletonAvHendrixSt,0.875,0.166666666666667,0.2916666666666667,0.055555555555555663,40.11894833333333,-75.01804066666666
BustletonAvHoffnagleSt,0.0,0.617647058823529,0.0,0.20588235294117632,40.06489366666667,-75.051488
BustletonAvKelvinAv,0.125,0.0,0.0625,0.0,40.111085,-75.024311
BustletonAvLarkspurSt,0.0,0.0,0.0,0.0,40.11610366666667,-75.02045533333335
BustletonAvLawlerSt,0.0,0.700980392156862,0.0,0.1752450980392155,40.110020500000005,-75.025128
BustletonAvLeoMallDr,0.0,0.0,0.0,0.0,40.119791,-75.017408
BustletonAvLeoMallDrivewayFS,0.0,0.0,0.0,0.0,40.119774,-75.017598
BustletonAvLeoMallDrivewayMBNS,0.0,0.25,0.0,0.125,40.120416,-75.017192
BustletonAvLevickSt,0.0,0.0625,0.0,0.03125,40.035707,-75.070539
BustletonAvLevickStFS,1.0,0.2,1.0,0.2,40.036098,-75.069958
BustletonAvLoneySt,0.0,0.367647058823529,0.0,0.1838235294117645,40.058049,-75.052735
BustletonAvLongshoreAv,0.0,0.3125,0.0,0.10416666666666667,40.04170766666667,-75.06434833333333
BustletonAvLottSt,1.6875,0.0625,0.5625,0.020833333333333332,40.089543666666664,-75.03352333333333
BustletonAvMageeAvFS,0.0,0.0,0.0,0.0,40.038172,-75.067796
BustletonAvMageeSt,0.0,1.54545454545455,0.0,1.54545454545455,40.037931,-75.068045
BustletonAvMowerSt,0.0,0.0588235294117647,0.0,0.02941176470588235,40.072351,-75.0482055
BustletonAvMurraySt,0.176470588235294,0.0,0.088235294117647,0.0,40.087013,-75.0357815
BustletonAvNapfleSt,0.0,0.0,0.0,0.0,40.053499,-75.054964
BustletonAvNortheastAvMBFS,0.0,0.0,0.0,0.0,40.09942,-75.030282
BustletonAvNorwalkRd,0.0,0.125,0.0,0.125,40.098153,-75.030514
BustletonAvNorwalkRdFS,1.3125,0.0625,0.65625,0.03125,40.098278,-75.030324
BustletonAvNorwalkRdMBFS,1.839285714285714,0.375,0.4598214285714285,0.09375,40.098278,-75.03032350000001
BustletonAvOakmontSt,0.0,0.0,0.0,0.0,40.051527,-75.056565
BustletonAvParkLn,0.0,0.0,0.0,0.0,40.14673,-75.004216
BustletonAvParkLnMBFS,0.0,0.25,0.0,0.125,40.147068,-75.003906
BustletonAvPetoniPl,0.181818181818182,0.272727272727273,0.090909090909091,0.1363636363636365,40.128937,-75.01384
BustletonAvPhilmontAv,0.0,0.375,0.0,0.375,40.131592,-75.012202
BustletonAvPhilmontAvFS,0.0,0.0,0.0,0.0,40.131156,-75.012678
BustletonAvPineHillRdFS,0.0,0.5,0.0,0.25,40.143467,-75.005277
BustletonAvPinehillRd,0.0909090909090909,0.181818181818182,0.0909090909090909,0.181818181818182,40.143396,-75.005479
BustletonAvPoquessingAv,0.0,0.25,0.0,0.25,40.128696,-75.013746
BustletonAvPresidentSt,0.6875,0.1875,0.171875,0.046875,40.093488,-75.031297
BustletonAvPrincetonAv,0.176470588235294,0.0,0.088235294117647,0.0,40.044206,-75.061936
BustletonAvPrincetonSt,0.0,0.0,0.0,0.0,40.044036,-75.061925
BustletonAvProctorRd,0.235294117647059,0.176470588235294,0.1176470588235295,0.088235294117647,40.103448,-75.028271
BustletonAvRedLionRd,0.8125,0.0625,0.40625,0.03125,40.102254,-75.028763
BustletonAvRedLionRdMBFS,0.0,0.0,0.0,0.0,40.101488,-75.029466
BustletonAvRennardSt,0.0,0.0,0.0,0.0,40.116568,-75.019865
BustletonAvRhawnSt,0.117647058823529,0.25,0.0588235294117645,0.125,40.0595235,-75.0520585
BustletonAvRobbinsAv,0.0,0.0,0.0,0.0,40.034121,-75.071434
BustletonAvRobbinsAvFS,0.0,0.0,0.0,0.0,40.033979,-75.071647
BustletonAvRolandAvMBFS,0.0,0.0,0.0,0.0,40.147978,-75.003735
BustletonAvRuthSt,0.0,0.0,0.0,0.0,40.152542,-75.001943
BustletonAvSaintVincentSt,0.0,0.28431372549019596,0.0,0.14215686274509798,40.04547,-75.060735
BustletonAvSaintVincentStFS,0.0,1.2,0.0,1.2,40.045567,-75.060581
BustletonAvScotchbrookDr,0.0,1.0625,0.0,0.53125,40.082637,-75.040538
BustletonAvShelmireAv,0.0,0.866666666666667,0.0,0.4333333333333335,40.050944,-75.0571415
BustletonAvSollyAv,0.25,0.0588235294117647,0.08333333333333333,0.019607843137254898,40.06306733333333,-75.051667
BustletonAvSomertonAv,0.125,0.272727272727273,0.041666666666666664,0.090909090909091,40.12198933333333,-75.01623166666667
BustletonAvSouthamptonRd,2.625,0.916666666666667,0.875,0.30555555555555564,40.133000333333335,-75.01083666666666
BustletonAvSouthamptonRdMBFS,2.0625,0.5625,1.03125,0.28125,40.133602,-75.009989
BustletonAvStanwoodSt,0.0,0.0,0.0,0.0,40.061465,-75.051924
BustletonAvStanwoodStFS,0.0,0.0625,0.0,0.03125,40.061464,-75.051759
BustletonAvStoltzAv,0.0,0.125,0.0,0.0625,40.149234,-75.003076
BustletonAvStrahleSt,0.0,0.0,0.0,0.0,40.066478,-75.051153
BustletonAvStreetRd,0.142857142857143,0.0,0.047619047619047665,0.0,40.15065166666667,-75.00256999999999
BustletonAvStreetRdMBFS,0.0833333333333333,0.0,0.0833333333333333,0.0,40.150126,-75.002905
BustletonAvTolbutSt,0.0,0.0,0.0,0.0,40.073785,-75.047187
BustletonAvTolbutStMBFS,0.0,0.0588235294117647,0.0,0.0588235294117647,40.0739,-75.046725
BustletonAvTomlinsonRd,0.0,1.0,0.0,1.0,40.112901,-75.023058
BustletonAvTrevoseRd,0.25,0.25,0.25,0.25,40.124567,-75.014883
BustletonAvTustinSt,0.0,0.0,0.0,0.0,40.07087633333333,-75.04948499999999
BustletonAvTysonAv,0.0,0.0,0.0,0.0,40.042978,-75.06316
BustletonAvTysonAvFS,0.0,0.0,0.0,0.0,40.042995,-75.062959
BustletonAvVanKirkSt,1.784090909090909,0.3409090909090909,0.8920454545454545,0.17045454545454544,40.028292500000006,-75.0744775
BustletonAvVerreeRdMBFS,0.0,0.125,0.0,0.125,40.106551,-75.027201
BustletonAvVerreeRdMBNS,0.0,1.70588235294118,0.0,1.70588235294118,40.106621,-75.026916
BustletonAvWinchesterAv,0.375,0.8125,0.375,0.8125,40.077363,-75.043879
BustletonAvWoodlandAv,0.0,0.125,0.0,0.125,40.13999,-75.006624
BustletonAvWoodlandRd,0.0,0.2,0.0,0.2,40.14016,-75.006742
BustletonAvthAv,0.0,0.0,0.0,0.0,40.145455,-75.004531
BustletonPkBridgetownPk,0.0714285714285714,0.0,0.0714285714285714,0.0,40.153584,-75.001369
BustletonPkRuthStFS,0.0,0.125,0.0,0.0625,40.152523,-75.001766
ButlerAvChestnutSt,0.625,0.125,0.625,0.125,40.152614,-75.226516
ButlerAvLindenwoldAv,0.75,0.125,0.75,0.125,40.155601,-75.219474
ButlerAvLocustSt,0.8666666666666667,0.0666666666666667,0.43333333333333335,0.03333333333333335,40.152543,-75.227168
ButlerAvMapleStMBFS,0.0,0.0,0.0,0.0,40.153334,-75.22475
ButlerAvRidgeAv,0.875,0.542857142857143,0.2916666666666667,0.180952380952381,40.154699666666666,-75.221525
ButlerAvSpringGardenAv,1.0714285714285714,0.7714285714285709,0.5357142857142857,0.38571428571428545,40.15417,-75.222936
ButlerAvSpringGardenSt,0.5625,0.0,0.5625,0.0,40.154,-75.223019
ButlerPkAntiochAv,0.0,0.8125,0.0,0.40625,40.085211,-75.295256
ButlerPkCedarGroveRd,0.553846153846154,0.0,0.276923076923077,0.0,40.092201,-75.288333
ButlerPkFarmDr,0.0666666666666667,0.2,0.03333333333333335,0.1,40.135313,-75.247864
ButlerPkKeysSt,0.125,0.1875,0.0625,0.09375,40.092531,-75.288297
ButlerPkNorthLn,0.0,0.0625,0.0,0.03125,40.087449,-75.293111
ButlerPkNorthLnFS,0.35384615384615403,0.230769230769231,0.17692307692307702,0.1153846153846155,40.08744,-75.292909
ButlerPkNorthLnMBFS,0.0769230769230769,0.0,0.03846153846153845,0.0,40.089365,-75.291001
ButlerPkNorthLnMBNS,0.5,0.3125,0.25,0.15625,40.089687,-75.290977
ButlerPkRidingsWayFS,0.0666666666666667,0.0666666666666667,0.03333333333333335,0.03333333333333335,40.145063,-75.238533
ButlerPkSkippackPk,0.5372549019607846,0.0,0.17908496732026155,0.0,40.139038,-75.24423999999999
ButlerPkthAv,0.27692307692307694,0.153846153846154,0.13846153846153847,0.076923076923077,40.084738,-75.29547
ButlerStAramingoAvFS,0.0,0.0,0.0,0.0,39.996238,-75.09229
ByberryRdAcademyRdFS,0.428571428571429,0.0,0.2142857142857145,0.0,40.096258,-74.976827
ByberryRdAdamsRd,0.0,0.3333333333333333,0.0,0.16666666666666666,40.110028,-74.926855
ByberryRdAudubonAv,0.0769230769230769,0.0,0.03846153846153845,0.0,40.126415,-75.020294
ByberryRdAudubonMBFS,0.0,0.0,0.0,0.0,40.127204,-75.021343
ByberryRdBarbaryRd,0.0,1.0,0.0,1.0,40.100795,-74.980061
ByberryRdBarbaryRdFS,0.4,0.6,0.4,0.6,40.100747,-74.979786
ByberryRdBlakesleeDr,0.2019230769230769,0.4615384615384619,0.0673076923076923,0.15384615384615397,40.128206666666664,-75.02323166666666
ByberryRdBustletonAvFS,0.528846153846154,0.384615384615385,0.264423076923077,0.1923076923076925,40.123256,-75.014962
ByberryRdDepueAv,1.346153846153846,0.6826923076923079,0.4487179487179487,0.22756410256410264,40.125008666666666,-75.017828
ByberryRdDunksFerryRd,0.35,0.8055555555555556,0.11666666666666665,0.26851851851851855,40.09919300000001,-74.97811
ByberryRdEvansStFS,0.565656565656566,0.611111111111111,0.282828282828283,0.3055555555555555,40.110659,-75.003543
ByberryRdEvansStMBFS,0.545454545454545,0.42424242424242387,0.2727272727272725,0.21212121212121193,40.109282,-75.002179
ByberryRdGallowayRdFS,0.0,2.375,0.0,2.375,40.108702,-74.930024
ByberryRdHulmevilleRdFS,0.25,0.5833333333333333,0.08333333333333333,0.19444444444444442,40.108501,-74.93647533333333
ByberryRdKelvinAv,0.32692307692307687,0.663461538461538,0.08173076923076922,0.1658653846153845,40.12066,-75.01045099999999
ByberryRdLewisSt,0.0,0.0,0.0,0.0,40.122958,-75.014182
ByberryRdLindsaySt,0.0,0.230769230769231,0.0,0.1153846153846155,40.121495,-75.011729
ByberryRdMedfordRd,0.7,0.8555555555555556,0.2333333333333333,0.2851851851851852,40.098424,-74.977748
ByberryRdProctorRd,0.384615384615385,0.7865384615384621,0.09615384615384626,0.19663461538461552,40.1222485,-75.013153
ByberryRdRooseveltBlvdMBNS,0.6565656565656559,0.444444444444444,0.32828282828282795,0.222222222222222,40.108142,-75.000895
ByberryRdStevensRd,0.153846153846154,1.557692307692308,0.0384615384615385,0.389423076923077,40.119907,-75.00915749999999
ByberryRdThorntonRd,0.6,1.2,0.6,1.2,40.102435,-74.981865
ByberryRdTownsendRd,0.0,0.0,0.0,0.0,40.103663,-74.983277
ByberryRdTownsendRdMBNS,0.292929292929293,0.20202020202020188,0.1464646464646465,0.10101010101010094,40.105276,-74.985314
CStAshdaleSt,0.0833333333333333,0.0833333333333333,0.04166666666666665,0.04166666666666665,40.028603,-75.117637
CadwaladerAvBrooksideRd,0.0,0.0,0.0,0.0,40.079783,-75.118265
CadwaladerAvChurchRd,0.0,0.0,0.0,0.0,40.073254,-75.123842
CadwaladerAvMarvinRd,0.0,0.0,0.0,0.0,40.078287,-75.119632
CadwaladerAvMarvinRdFS,0.0,0.0,0.0,0.0,40.078306,-75.119808
CadwaladerAvShoemakerRd,0.0909090909090909,0.0,0.0303030303030303,0.0,40.07611766666667,-75.12092333333334
CadwaladerAvTownshipLineRd,0.0,0.0,0.0,0.0,40.081127,-75.116923
CadwaladerAvWaringRd,0.0,0.363636363636364,0.0,0.12121212121212133,40.074601666666666,-75.12242033333332
CalconHookRdBayardAv,0.431818181818182,0.181818181818182,0.215909090909091,0.090909090909091,39.900718,-75.262679
CalconHookRdBayardAvFS,1.2159090909090908,0.181818181818182,0.6079545454545454,0.090909090909091,39.900888,-75.262961
CalconHookRdElmwoodAv,0.0,0.545454545454545,0.0,0.545454545454545,39.906085,-75.264849
CambriaStAramingoAv,0.222222222222222,0.333333333333333,0.222222222222222,0.333333333333333,39.984878,-75.113574
CambriaStFrankfordAv,1.22222222222222,0.680555555555556,0.61111111111111,0.340277777777778,39.98978,-75.117924
CambriaStMemphisSt,0.4375,0.5625,0.4375,0.5625,39.985343,-75.113973
CambriaStRichmondSt,0.0,1.5,0.0,1.5,39.979119,-75.109134
CampusDrArcolaRd,0.0,0.0,0.0,0.0,40.159101,-75.466392
CampusDrIronMountainBldg,1.5,0.214285714285714,0.5,0.07142857142857133,40.161208333333335,-75.47308466666667
CampusDrMarriottHotel,0.357142857142857,0.0,0.1785714285714285,0.0,40.159813,-75.471627
CampusDrMarriottHotelFS,0.0,0.0,0.0,0.0,40.159679,-75.471769
CampusDrWyethBldg,0.0,0.0,0.0,0.0,40.158567000000005,-75.47026066666666
CardinalAvOverbrookAv,0.0,0.25,0.0,0.25,39.992157,-75.240217
CarolineRdCharterRdFS,0.0,0.4,0.0,0.4,40.097353,-75.004273
CarolineRdCharterRdMBNS,1.2,0.2,1.2,0.2,40.097683,-75.00401
CarolineRdComlyRdMBFS,0.727272727272727,0.272727272727273,0.727272727272727,0.272727272727273,40.098926,-75.002204
CastorAvArthurSt,0.0,0.5,0.0,0.25,40.063632,-75.054367
CastorAvBennerSt,0.125,0.0,0.125,0.0,40.035853,-75.08099
CastorAvBleighAv,0.375,1.192307692307692,0.09375,0.298076923076923,40.053062499999996,-75.0643325
CastorAvBorbeckAv,0.0,1.0,0.0,1.0,40.05944,-75.058487
CastorAvBorbeckSt,0.0,0.0769230769230769,0.0,0.03846153846153845,40.059172,-75.058406
CastorAvComlySt,0.153846153846154,0.45192307692307687,0.05128205128205133,0.15064102564102563,40.03444833333333,-75.08219866666667
CastorAvDevereauxAv,0.25,0.125,0.25,0.125,40.037081,-75.079813
CastorAvEverettAv,0.0,0.153846153846154,0.0,0.076923076923077,40.041771,-75.075084
CastorAvFaunceSt,0.0,0.0,0.0,0.0,40.055711,-75.062019
CastorAvGaulSt,0.571428571428571,0.0,0.2857142857142855,0.0,39.993269,-75.0933375
CastorAvGlendaleAv,0.0,0.0,0.0,0.0,40.055763,-75.061616
CastorAvHartelAv,0.0,3.153846153846154,0.0,1.0512820512820513,40.05801833333334,-75.05961
CastorAvHellermanSt,0.0,0.0,0.0,0.0,40.040793,-75.076236
CastorAvHoffnagleSt,0.0,2.5,0.0,1.25,40.0655325,-75.052583
CastorAvKnorrSt,1.25,0.375,0.625,0.1875,40.044505,-75.072647
CastorAvLoneySt,1.0,1.5769230769230769,0.3333333333333333,0.5256410256410257,40.06051033333333,-75.05725133333333
CastorAvLongshoreAvFS,0.125,0.0,0.0625,0.0,40.045475,-75.07172
CastorAvMaGeeAv,0.125,0.0,0.125,0.0,40.042057,-75.075012
CastorAvNapfleAv,0.0,0.5,0.0,0.16666666666666666,40.05673633333333,-75.060811
CastorAvOrthodoxAvMBNS,0.545454545454545,0.363636363636364,0.545454545454545,0.363636363636364,40.019017,-75.096367
CastorAvOrthodoxStMBNS,0.176470588235294,0.617647058823529,0.088235294117647,0.3088235294117645,40.020655,-75.094988
CastorAvPrincetonAv,0.0,0.0,0.0,0.0,40.048216,-75.069069
CastorAvRhawnSt,0.5769230769230769,1.0769230769230769,0.1923076923076923,0.358974358974359,40.06174733333334,-75.05609
CastorAvRobbinsAv,0.875,0.0,0.875,0.0,40.0383,-75.078625
CastorAvRooseveltBlvd,0.0,0.125,0.0,0.125,40.032488,-75.084198
CastorAvSaintVincentSt,0.25,0.0,0.125,0.0,40.049471,-75.067869
CastorAvShelmireAv,0.5,0.0,0.16666666666666666,0.0,40.05426833333333,-75.06314133333333
CastorAvSollyAv,0.5,2.0,0.25,1.0,40.064273,-75.05376050000001
CastorAvStanwoodSt,0.0,0.230769230769231,0.0,0.076923076923077,40.06298533333334,-75.05492433333333
CastorAvThompsonSt,0.0,0.5210084033613449,0.0,0.26050420168067245,39.990866499999996,-75.09118649999999
CastorAvTysonAv,0.25,0.0,0.125,0.0,40.046934,-75.070282
CastorAvUnruhAv,0.0,1.07692307692308,0.0,0.35897435897436,40.04312733333333,-75.07383266666666
CastorAvVanKirkSt,1.0769230769230769,1.362637362637366,0.358974358974359,0.4542124542124553,40.03321733333333,-75.08336666666666
CecilBMooreAvGlenwoodAv,0.0,0.454545454545455,0.0,0.2272727272727275,39.981929,-75.183608
CecilBMooreAvRidgeAv,0.989898989898989,1.1919191919191916,0.24747474747474724,0.2979797979797979,39.980559,-75.172478
CecilBMooreAvndSt,2.55555555555556,1.068181818181818,0.511111111111112,0.21363636363636357,39.9811752,-75.1771344
CecilBMooreAvrdSt,0.928571428571429,0.8714285714285714,0.4642857142857145,0.4357142857142857,39.98267,-75.188248
CecilBMooreAvstSt,2.9393939393939386,1.882575757575758,0.4898989898989898,0.31376262626262635,39.98116,-75.17716216666666
CecilBMooreAvthSt,28.755980861244023,13.499627857522595,0.6251300187226961,0.2934701708157086,39.97981986956522,-75.16675354347826
CecilBMooreAvthStFS,0.638157894736842,1.098684210526316,0.319078947368421,0.549342105263158,39.977619000000004,-75.1497305
CedarAvMainAv,0.0833333333333333,0.392857142857143,0.020833333333333325,0.09821428571428575,40.090314,-74.90566
CedarRdFoxChaseRd,0.0,0.0,0.0,0.0,40.085766,-75.098517
CedarRdFoxChaseRdFS,0.732142857142857,0.357142857142857,0.3660714285714285,0.1785714285714285,40.085792,-75.098316
CedarRdGibsonAv,0.0,0.0,0.0,0.0,40.087047,-75.097115
CedarRdGibsonRd,0.0,0.0,0.0,0.0,40.087181,-75.097126
CedarRdMontgomeryAv,0.4599567099567102,0.5378787878787883,0.15331890331890338,0.17929292929292942,40.08888133333333,-75.09541033333333
CedarRdOldHuntingdonPk,0.0,0.0,0.0,0.0,40.089923,-75.094262
CedarRdOldHuntingdonPkFS,0.0,0.836363636363636,0.0,0.418181818181818,40.090101,-75.094297
CedarStAlbertSt,0.125,0.125,0.125,0.125,39.980948,-75.119415
CedarStCumberlandSt,0.25,0.0,0.25,0.0,39.979349,-75.122494
CedarStHagertSt,0.125,0.125,0.125,0.125,39.978745,-75.123666
CedarStHuntingdonSt,0.0,0.0,0.0,0.0,39.980548,-75.120173
CedarStSergeantSt,0.0,0.125,0.0,0.125,39.979971,-75.121298
CedarStYorkSt,0.0,0.5,0.0,0.5,39.978087,-75.124838
CedarbrookPlaza,3.081002331002334,3.026806526806527,0.7702505827505834,0.7567016317016317,40.08152825,-75.167664
CedarbrookPlazaStop,1.28571428571429,0.0,1.28571428571429,0.0,40.083753,-75.168398
CentralAvAshbourneRdFS,0.25833333333333297,0.791666666666667,0.12916666666666649,0.3958333333333335,40.059804,-75.095787
CentralAvBeecherAv,1.05,0.375,0.35000000000000003,0.125,40.06370533333333,-75.09189666666667
CentralAvCottmanAv,0.125,0.125,0.125,0.125,40.065082,-75.090487
CentralAvFaunceSt,0.142857142857143,0.0,0.142857142857143,0.0,40.069035,-75.086707
CentralAvFranklinAv,2.3,0.125,0.7666666666666666,0.041666666666666664,40.06295766666667,-75.09265766666668
CentralAvJeffersonAv,0.45,0.8125,0.15,0.2708333333333333,40.06447133333333,-75.09112466666666
CentralAvLaurelAv,0.7,1.708333333333333,0.2333333333333333,0.5694444444444443,40.061239666666665,-75.09439233333335
CentralAvMyrtleAv,0.65,0.6,0.21666666666666667,0.19999999999999998,40.06217133333333,-75.09345766666667
CentralAvShelmireAv,0.428571428571429,0.142857142857143,0.428571428571429,0.142857142857143,40.068536,-75.087194
CentralAvShelmireAvFS,0.0,0.333333333333333,0.0,0.333333333333333,40.068518,-75.087041
CentralAvTookanyCreekPkwy,0.0,0.0,0.0,0.0,40.060214,-75.095572
CentralAvTudorSt,1.8095238095238069,0.0,0.9047619047619034,0.0,40.0666,-75.0890545
CentralBlvdSFarnsworthDr,0.0,4.92307692307692,0.0,4.92307692307692,39.966581,-75.33924
CentralBlvdSHampshireDr,0.0,2.23076923076923,0.0,2.23076923076923,39.96602,-75.339997
ChalfontDrAcademyRd,0.0,0.0,0.0,0.0,40.083987,-74.989859
ChalfontDrAcademyRdFS,0.722222222222222,0.444444444444444,0.722222222222222,0.444444444444444,40.083871,-74.989955
ChalfontDrBrookviewDrFS,0.166666666666667,0.25,0.166666666666667,0.25,40.082496,-74.987183
ChalfontDrByrneRd,0.0,0.111111111111111,0.0,0.0555555555555555,40.082447,-74.985941
ChalfontDrCaleraRd,0.0,0.111111111111111,0.0,0.0555555555555555,40.083,-74.988446
ChalfontDrCaleraRdFS,0.4166666666666663,0.25,0.20833333333333315,0.125,40.082803,-74.988258
ChalfontDrCareyRd,1.33333333333333,0.388888888888889,1.33333333333333,0.388888888888889,40.082304,-74.985895
ChalfontDrKeswickRd,0.153846153846154,0.230769230769231,0.153846153846154,0.230769230769231,40.082253,-74.984014
ChamplostAvEllaSt,0.142857142857143,0.0,0.0714285714285715,0.0,40.041072,-75.117819
ChamplostAvFrontStFS,0.42857142857142894,0.285714285714286,0.21428571428571447,0.142857142857143,40.041282,-75.119544
ChamplostAvHammondAv,1.0,0.285714285714286,0.5,0.142857142857143,40.041067,-75.115773
ChamplostStthSt,0.0,0.0,0.0,0.0,40.043781,-75.138014
CharterRdNorcomRd,0.2,0.0,0.2,0.0,40.094288,-75.003108
ChelseaPkwyChichesterAv,0.818181818181818,0.636363636363636,0.818181818181818,0.636363636363636,39.851761,-75.452982
CheltenAvAndersonSt,1.5,0.75,0.75,0.375,40.051111,-75.1590395
CheltenAvArdleighSt,0.75,1.5,0.375,0.75,40.049668,-75.160511
CheltenAvBoyerSt,0.125,1.5,0.0625,0.75,40.047085,-75.16317000000001
CheltenAvChewAvFS,0.0,3.0,0.0,3.0,40.045375,-75.165027
CheltenAvGermantownAv,0.0,0.222222222222222,0.0,0.222222222222222,40.035944,-75.174685
CheltenAvGreeneSt,0.272727272727273,0.454545454545455,0.272727272727273,0.454545454545455,40.034002,-75.17656
CheltenAvLimekilnPk,1.0,0.230769230769231,0.5,0.1153846153846155,40.051793,-75.152882
CheltenAvSpragueSt,0.75,0.625,0.375,0.3125,40.048564,-75.161651
CheltenAvWayneAv,0.272727272727273,1.27272727272727,0.272727272727273,1.27272727272727,40.031641,-75.178933
CheltenAvWisterSt,0.5,1.0,0.5,1.0,40.052,-75.15767
CheltenAvstSt,1.0,0.961538461538462,0.5,0.480769230769231,40.051897,-75.155247
CheltenAvthSt,4.076923076923077,0.923076923076924,0.6794871794871794,0.153846153846154,40.051227000000004,-75.14690833333333
CheltenhamAvFrankfordAvMBNS,0.333333333333333,1.66666666666667,0.333333333333333,1.66666666666667,40.025837,-75.074028
CheltenhamAvHillcrestRd,1.35714285714286,0.0714285714285714,1.35714285714286,0.0714285714285714,40.086479,-75.179403
CheltenhamAvHorrocksSt,0.125,0.2,0.041666666666666664,0.06666666666666667,40.02957766666666,-75.08085833333334
CheltenhamAvLargeSt,0.1394230769230769,0.524038461538462,0.04647435897435897,0.17467948717948734,40.030594,-75.08265033333333
CheltenhamAvOaklandSt,0.625,0.495192307692308,0.20833333333333334,0.16506410256410267,40.028563999999996,-75.07909033333333
CheltenhamAvOgontzAv,0.0,2.0,0.0,2.0,40.074352,-75.158851
CheltenhamAvPennSt,0.214285714285714,0.142857142857143,0.107142857142857,0.0714285714285715,40.027384,-75.076769
CheltenhamAvPhilEllenaSt,0.0,0.0,0.0,0.0,40.075768,-75.161448
CheltenhamAvPitvilleAv,0.0,0.0,0.0,0.0,40.066063,-75.144216
CheltenhamAvPleasantSt,0.410714285714286,0.214285714285714,0.205357142857143,0.107142857142857,40.087519,-75.181482
CheltenhamAvRooseveltBlvd,0.285714285714286,0.0,0.285714285714286,0.0,40.031371,-75.083884
CheltenhamAvRooseveltBvldFS,0.0,0.0769230769230769,0.0,0.03846153846153845,40.031264,-75.083979
CheltenhamAvRoumfortRd,0.181818181818182,0.454545454545455,0.181818181818182,0.454545454545455,40.08365,-75.174894
CheltenhamAvSaulSt,0.0769230769230769,0.971153846153846,0.025641025641025633,0.3237179487179487,40.02789466666667,-75.07790766666666
CheltenhamAvWaverlyRd,3.4821428571428568,1.9107142857142814,1.1607142857142856,0.6369047619047604,40.085912666666665,-75.17863233333334
CheltenhamAvthSt,0.0,0.0,0.0,0.0,40.066682,-75.145302
ChemicalRdGallagherRdFS,0.333333333333333,0.444444444444444,0.333333333333333,0.444444444444444,40.099892,-75.294554
ChemicalRdGermantownPkMBFS,1.0625,0.1875,0.53125,0.09375,40.105163,-75.283006
ChesterAvAlfredAv,0.33076923076923104,0.0,0.11025641025641035,0.0,39.92375633333333,-75.25423966666666
ChesterAvAllenDrYeadonLoop,0.5,0.0,0.25,0.0,39.924525,-75.252542
ChesterAvCedarAv,0.0,0.0,0.0,0.0,39.923012,-75.255946
ChesterAvChurchLn,0.869230769230769,0.6102564102564099,0.28974358974358966,0.20341880341880328,39.926488,-75.24621766666667
ChesterAvDuncanAv,1.446153846153846,0.561538461538462,0.723076923076923,0.280769230769231,39.9256885,-75.24911
ChesterAvStetserAv,1.1615384615384619,0.1,0.5807692307692309,0.05,39.9251735,-75.25075799999999
ChesterAvYeadonAv,0.0,0.0,0.0,0.0,39.92607,-75.247486
ChesterAvndSt,1.666666666666667,5.322222222222228,0.23809523809523814,0.7603174603174612,39.94553571428571,-75.21265028571429
ChesterAvrdSt,1.0,2.555555555555555,0.16666666666666666,0.4259259259259258,39.944518499999994,-75.21530200000001
ChesterAvstSt,0.666666666666667,3.088888888888889,0.1333333333333334,0.6177777777777778,39.9448298,-75.2137244
ChesterAvthSt,6.522222222222217,15.522222222222233,0.25085470085470063,0.5970085470085474,39.94066830769231,-75.22180819230769
ChesterAvthStFS,0.0,0.4,0.0,0.2,39.929565,-75.244703
ChesterPikeFlorenceAv,0.0,0.0,0.0,0.0,39.907919,-75.275243
ChesterPikeSharonAv,0.0,4.66666666666667,0.0,4.66666666666667,39.908827,-75.273588
ChesterPkAcresDr,0.727272727272727,0.0,0.3636363636363635,0.0,39.877977,-75.317233
ChesterPkAcresDrFS,0.846153846153846,0.0,0.423076923076923,0.0,39.87779,-75.317304
ChesterPkAmoslandRd,1.29059829059829,0.564102564102564,0.645299145299145,0.282051282051282,39.888077,-75.3002985
ChesterPkAshlandAv,1.752136752136748,0.29914529914529886,0.5840455840455826,0.09971509971509962,39.901023,-75.287715
ChesterPkBaldwinTowersDr,0.857142857142857,0.142857142857143,0.857142857142857,0.142857142857143,39.866974,-75.340722
ChesterPkBaldwinTowersDrFS,0.0,0.181818181818182,0.0,0.181818181818182,39.866894,-75.340486
ChesterPkBartlettAv,0.0,0.666666666666667,0.0,0.666666666666667,39.913085,-75.26697
ChesterPkBurkAv,0.0,0.8,0.0,0.4,39.879765,-75.311119
ChesterPkBurkAvFS,1.0,0.0,0.5,0.0,39.87989,-75.311249
ChesterPkCalconHookRd,0.0,1.0,0.0,1.0,39.912212,-75.26814
ChesterPkCalconHookRdMBNS,1.125,0.125,1.125,0.125,39.911534,-75.268791
ChesterPkCataniaParkMBNS,0.7,0.0,0.7,0.0,39.871928,-75.32977
ChesterPkCherrySt,0.0,0.0,0.0,0.0,39.914216,-75.265468
ChesterPkClevelandAv,0.846153846153846,0.615384615384615,0.846153846153846,0.615384615384615,39.891505,-75.297106
ChesterPkCliftonAvFS,1.875,1.0,1.875,1.0,39.908266,-75.274345
ChesterPkFolcroftAv,1.75,0.856837606837607,0.5833333333333334,0.2856125356125357,39.905080999999996,-75.28022066666666
ChesterPkGardnerAv,0.555555555555556,0.8253968253968249,0.277777777777778,0.41269841269841245,39.899948,-75.2896915
ChesterPkGarfieldAvFS,0.384615384615385,0.0769230769230769,0.384615384615385,0.0769230769230769,39.890515,-75.298016
ChesterPkGlenoldenAv,1.8269230769230769,0.5213675213675208,0.6089743589743589,0.1737891737891736,39.897488,-75.29187933333334
ChesterPkGraysAv,1.547008547008547,1.572649572649572,0.7735042735042735,0.786324786324786,39.8960345,-75.293204
ChesterPkHetzelAv,2.040404040404042,0.696969696969697,1.020202020202021,0.3484848484848485,39.873033,-75.327928
ChesterPkHetzelRd,0.3,0.4,0.3,0.4,39.872846,-75.32807
ChesterPkHuronAv,1.23076923076923,0.153846153846154,1.23076923076923,0.153846153846154,39.886262,-75.301776
ChesterPkHuronAvFS,0.555555555555556,0.555555555555556,0.555555555555556,0.555555555555556,39.886503,-75.301835
ChesterPkKennyAvMBFS,2.125,0.5,2.125,0.5,39.910937,-75.269595
ChesterPkKnowlesAv,0.25,0.0,0.125,0.0,39.89845,-75.290945
ChesterPkKnowlesAvFS,0.666666666666667,0.111111111111111,0.666666666666667,0.111111111111111,39.898647,-75.29098
ChesterPkLamontAv,0.333333333333333,0.0,0.1666666666666665,0.0,39.901828,-75.28649
ChesterPkLamontAvFS,0.2019230769230769,0.153846153846154,0.10096153846153845,0.076923076923077,39.901765,-75.286313
ChesterPkMacDadeBlvd,0.0,0.0,0.0,0.0,39.917008,-75.264458
ChesterPkMacDadeBlvdFS,0.0,0.0,0.0,0.0,39.917017,-75.264647
ChesterPkMcCormickAv,1.45454545454545,0.585858585858586,0.727272727272725,0.292929292929293,39.873969,-75.32611
ChesterPkMorrisAv,0.7,0.7,0.7,0.7,39.86962,-75.334868
ChesterPkOakLn,0.5,0.166666666666667,0.25,0.0833333333333335,39.903324,-75.283348
ChesterPkPineSt,0.0,0.0909090909090909,0.0,0.0909090909090909,39.915635,-75.264957
ChesterPkPrincetonAvFS,0.0,0.0,0.0,0.0,39.877309,-75.318897
ChesterPkProspectAv,1.1748251748251741,1.1,0.29370629370629353,0.275,39.88132,-75.308344
ChesterPkRamblerRd,0.444444444444444,0.0,0.444444444444444,0.0,39.903181,-75.283926
ChesterPkRidleyAv,0.5,1.5333333333333299,0.25,0.7666666666666649,39.8904125,-75.30180200000001
ChesterPkRidleyAvFS,0.909090909090909,0.565656565656566,0.4545454545454545,0.282828282828283,39.870868,-75.332437
ChesterPkRodneyRd,1.1496503496503498,0.9900543900543898,0.28741258741258746,0.24751359751359744,39.879316,-75.31272999999999
ChesterPkSellersAv,0.909090909090909,0.333333333333333,0.4545454545454545,0.1666666666666665,39.875074,-75.324032
ChesterPkSellersAvFS,0.2,0.1,0.2,0.1,39.875002,-75.323879
ChesterPkSimpsonSt,0.181818181818182,0.363636363636364,0.181818181818182,0.363636363636364,39.865316,-75.343756
ChesterPkSimpsonStFS,0.714285714285714,1.0,0.714285714285714,1.0,39.865397,-75.343873
ChesterPkSimpsonStMBFS,0.363636363636364,0.363636363636364,0.363636363636364,0.363636363636364,39.866172,-75.341962
ChesterPkSimpsonStMBNS,0.285714285714286,1.42857142857143,0.285714285714286,1.42857142857143,39.866234,-75.342162
ChesterPkSmileySt,0.272727272727273,0.0909090909090909,0.272727272727273,0.0909090909090909,39.867526,-75.3392
ChesterPkSmileyStFS,0.142857142857143,0.142857142857143,0.142857142857143,0.142857142857143,39.867687,-75.3392
ChesterPkSouthAv,1.623931623931624,1.170940170940171,0.811965811965812,0.5854700854700855,39.894309,-75.29474099999999
ChesterPkStewartAv,0.1,0.1,0.1,0.1,39.873755,-75.326228
ChesterPkSummitAv,0.9160839160839169,0.7102564102564098,0.22902097902097923,0.17756410256410246,39.884354,-75.30362
ChesterPkSwarthmoreAv,0.492929292929293,0.381818181818182,0.16430976430976432,0.12727272727272734,39.876528666666665,-75.32107733333333
ChesterPkWinonaAv,1.170940170940171,1.153846153846154,0.5854700854700855,0.576923076923077,39.888857,-75.29959450000001
ChesterRdAvondaleLn,0.0,0.0,0.0,0.0,39.884549,-75.357843
ChesterRdAvondaleLnFS,0.0,0.0,0.0,0.0,39.884673,-75.357477
ChesterRdBaltimorePkFS,0.0,0.0,0.0,0.0,39.913786,-75.344724
ChesterRdCanterburyDr,0.0,0.0,0.0,0.0,39.8834115,-75.3592005
ChesterRdCollegeAv,0.833333333333333,1.0,0.2777777777777777,0.3333333333333333,39.90631666666667,-75.35022466666668
ChesterRdFairviewRd,0.0,1.0,0.0,0.5,39.892095999999995,-75.3529565
ChesterRdGovernorsDr,0.5,0.5,0.25,0.25,39.880508000000006,-75.3613915
ChesterRdHarvardAv,0.0,0.0,0.0,0.0,39.899288,-75.351232
ChesterRdMedburyRd,0.0,0.0,0.0,0.0,39.882194,-75.360865
ChesterRdMedburyRdFS,0.0,0.5,0.0,0.5,39.882123,-75.360677
ChesterRdMtHolyokePlFS,0.0,0.0,0.0,0.0,39.889901,-75.354168
ChesterRdParklaneRd,0.0,0.0,0.0,0.0,39.890097,-75.353837
ChesterRdStrathavenAv,0.0,0.0,0.0,0.0,39.893919333333336,-75.35220866666667
ChesterRdSwarthmoreAv,0.0,0.166666666666667,0.0,0.0833333333333335,39.910862,-75.349012
ChesterRdWestdaleAv,0.0,0.5,0.0,0.16666666666666666,39.89513266666666,-75.35172366666666
ChesterRdYaleAv,0.5,0.0,0.25,0.0,39.897485,-75.351328
ChesterfieldPkwy,0.4,0.0,0.2,0.0,40.0599375,-75.5151095
ChestnutHillLoop,0.0,0.5,0.0,0.5,40.077715,-75.208298
ChestnutPkwyBlakeleyRd,0.3214285714285714,0.803571428571429,0.08035714285714285,0.20089285714285726,39.874104,-75.3699385
ChestnutPkwyHarveyRd,0.0769230769230769,0.125,0.03846153846153845,0.0625,39.87322,-75.367633
ChestnutPkwyMediaPkwy,1.184615384615385,1.467857142857143,0.29615384615384627,0.36696428571428574,39.875338,-75.373482
ChestnutPkwyRidleyDr,1.2,0.6,1.2,0.6,39.873202,-75.367916
ChestnutPkwyRyanardRd,0.4,1.035714285714286,0.1,0.2589285714285715,39.874752,-75.371743
ChestnutStChestnutRidgeSeniorRes,0.153846153846154,0.615384615384615,0.153846153846154,0.615384615384615,39.87121,-75.364851
ChestnutStProvidenceAv,0.0,0.2,0.0,0.2,39.868648,-75.362553
ChestnutStTheBelvedere,0.6,0.8,0.6,0.8,39.870308,-75.364026
ChestnutStndSt,1.25,0.75,0.4166666666666667,0.25,39.95014833333333,-75.15866333333334
ChestnutStrdSt,0.375,2.625,0.1875,1.3125,39.948587,-75.146148
ChestnutStrdStFS,0.0,0.0,0.0,0.0,39.961108,-75.246806
ChestnutStstSt,0.25,0.5,0.25,0.5,39.95348,-75.185359
ChestnutStthSt,3.2678571428571432,4.878968253968255,0.4084821428571429,0.6098710317460319,39.93368425,-75.239678
ChestnutStthStMBFS,0.625,0.125,0.3125,0.0625,39.871264,-75.364627
CheyneyRdBaltimorePk,0.292929292929293,0.545454545454545,0.1464646464646465,0.2727272727272725,39.891222,-75.506102
CheyneyRdBaltimorePkFS,0.0,0.0,0.0,0.0,39.891293,-75.505925
CheyneyRdGovMarkhamDr,0.222222222222222,1.09090909090909,0.111111111111111,0.545454545454545,39.896478,-75.507252
CheyneyRdSpringlawnRd,0.5,0.727272727272728,0.16666666666666666,0.24242424242424265,39.90539866666666,-75.51280433333334
ChichesterAvAppleSt,0.666666666666667,0.166666666666667,0.666666666666667,0.166666666666667,39.844417,-75.444608
ChichesterAvBeesonAvopposite,0.0,9.5,0.0,9.5,39.829157,-75.433995
ChichesterAvFloraLn,0.64935064935065,0.538961038961039,0.324675324675325,0.2694805194805195,39.844542,-75.444478
ChichesterAvGalbraithAv,1.54545454545455,0.324675324675325,0.772727272727275,0.1623376623376625,39.832236,-75.440892
ChichesterAvHuddellAv,0.0,0.375,0.0,0.375,39.826418,-75.425177
ChichesterAvJohnsonAv,0.0,2.125,0.0,2.125,39.828185,-75.430729
ChichesterAvKingsmanRd,0.294117647058824,0.117647058823529,0.294117647058824,0.117647058823529,39.834512,-75.441918
ChichesterAvKingsmanRdFS,1.45454545454545,0.8051948051948049,0.727272727272725,0.40259740259740245,39.834663,-75.441776
ChichesterAvLarkinRdFS,1.11111111111111,0.838383838383838,0.555555555555555,0.419191919191919,39.848932,-75.451189
ChichesterAvLaugheadAv,0.0,1.5,0.0,1.5,39.827328,-75.428018
ChichesterAvMcKayAv,0.235294117647059,0.176470588235294,0.235294117647059,0.176470588235294,39.832004,-75.440868
ChichesterAvMillRd,2.5259740259740213,0.126984126984127,0.8419913419913404,0.04232804232804233,39.840068333333335,-75.44291266666666
ChichesterAvRollingGlenDr,1.90909090909091,1.54545454545455,1.90909090909091,1.54545454545455,39.845836,-75.446495
ChichesterAvRollingGlenDrFS,0.277777777777778,0.0,0.277777777777778,0.0,39.845702,-75.446518
ChichesterAvSommersLn,0.222222222222222,0.636363636363636,0.111111111111111,0.318181818181818,39.853581,-75.454787
ChichesterAvSommersLnFS,1.0,0.0,1.0,0.0,39.853644,-75.454646
ChichesterAvWoodstreamRd,0.747474747474747,0.818181818181818,0.3737373737373735,0.409090909090909,39.846559,-75.4478275
ChinatownStationBSL,0.2,0.9,0.2,0.9,39.955027,-75.1527
ChurchLnClevelandAv,0.222222222222222,1.11111111111111,0.111111111111111,0.555555555555555,39.9450425,-75.255721
ChurchLnGreenwoodAv,0.0,0.0,0.0,0.0,39.947589,-75.254847
ChurchLnGuilfordRd,0.222222222222222,0.111111111111111,0.222222222222222,0.111111111111111,39.949838,-75.254688
ChurchLnRadbourneRd,0.0,0.0,0.0,0.0,39.948571,-75.25462
ChurchLnWalnutParkDr,0.111111111111111,0.111111111111111,0.111111111111111,0.111111111111111,39.949668,-75.254547
ChurchRdBeckerRdMBFS,0.2625,1.0,0.13125,0.5,40.217495,-75.291736
ChurchRdBeckerRdMBNS,0.2,0.0,0.2,0.0,40.217548,-75.291498
ChurchRdCadwaladerAv,0.0,0.0,0.0,0.0,40.073147,-75.123676
ChurchRdCherryStFS,0.3125,0.0,0.15625,0.0,40.229908,-75.281398
ChurchRdCherryStMBNS,0.0,0.0,0.0,0.0,40.229462,-75.281672
ChurchRdKneedlerRd,0.6,0.4,0.3,0.2,40.221036,-75.289299
ChurchRdKneedlerRdMBNS,0.0,0.6,0.0,0.6,40.220599,-75.289406
ChurchRdRidgePk,0.0,0.0,0.0,0.0,40.081981,-75.252933
ChurchRdWissahickonAvMBNS,0.25,0.0,0.125,0.0,40.227484,-75.284426
ChurchStGayStFS,0.75,0.25,0.75,0.25,40.132566,-75.518043
CiderMillRdFreedomValleyDrMBFS,0.0714285714285714,0.0,0.0357142857142857,0.0,40.140905,-75.449653
CiderMillRdFreedomValleyDrMBNS,0.0,0.333333333333333,0.0,0.333333333333333,40.140753,-75.449688
CiderMillRdMinutemanDr,0.0714285714285714,0.0,0.023809523809523798,0.0,40.14728866666666,-75.455619
CircleDrMarketSt,0.0,0.0,0.0,0.0,40.133866,-75.350239
CircleDrTowerFarmRdMBFS,0.0,8.21428571428571,0.0,8.21428571428571,40.135124,-75.348971
CityAvBalaAv,0.428571428571429,0.571428571428571,0.428571428571429,0.571428571428571,39.999922,-75.228958
CityAvBelmontAvFS,0.0,1.75,0.0,1.75,40.004111,-75.22019
CityAvBerwickRd,0.75,1.25,0.375,0.625,39.993189,-75.243759
CityAvBlancoydRd,0.0,1.375,0.0,0.6875,39.991222,-75.247911
CityAvBrynMawrAv,0.0,0.142857142857143,0.0,0.142857142857143,39.99922,-75.230851
CityAvCardinalAv,0.0,0.5,0.0,0.25,39.994203,-75.24157
CityAvConshohockenStateRd,0.0,1.14285714285714,0.0,1.14285714285714,40.001524,-75.225964
CityAvLancasterAvFS,0.0,0.5,0.0,0.5,39.988357,-75.253731
CityAvLapsleyLane,0.375,0.0,0.1875,0.0,39.995439,-75.238908
CityAvMerionRd,0.5,0.375,0.25,0.1875,39.990653,-75.249082
CityAvMonumentRd,0.666666666666667,0.0,0.666666666666667,0.0,40.006939,-75.214024
CityAvMonumentRdFS,0.714285714285714,0.714285714285714,0.714285714285714,0.714285714285714,40.007091,-75.21426
CityAvOrchardRd,0.111111111111111,1.66666666666667,0.111111111111111,1.66666666666667,39.996258,-75.237181
CityAvOverbrookPkwy,0.117647058823529,2.0,0.117647058823529,2.0,39.977666,-75.275198
CityAvndSt,0.0,1.5,0.0,1.5,39.997965,-75.233289
CityAvrdSt,0.0,0.25,0.0,0.125,39.989776,-75.250839
CityAvthSt,0.34848484848484895,1.861111111111111,0.11616161616161631,0.6203703703703703,39.993731,-75.24231566666667
CityAvthStFS,0.428571428571429,0.142857142857143,0.428571428571429,0.142857142857143,39.996969,-75.235655
CityHallStationBSL,0.1,0.0,0.1,0.0,39.952464,-75.164059
CityLineAvTrentRd,2.375,0.75,2.375,0.75,39.978796,-75.272302
CivicCenterBlvdConventionAvFS,0.25,0.75,0.25,0.75,39.949112,-75.192671
CivicCenterBlvdOslerCir,0.166666666666667,1.66666666666667,0.166666666666667,1.66666666666667,39.947571,-75.194483
ClarissaStWayneAvMBFS,0.0,0.0,0.0,0.0,40.02075,-75.160567
ClarissaStWayneAvMBNS,0.0,0.0,0.0,0.0,40.020491,-75.160509
CobbsCreekPkwyUplandStFS,0.666666666666667,0.0,0.666666666666667,0.0,39.920625,-75.246756
CollegeAvthStFS,0.428571428571429,1.0,0.428571428571429,1.0,39.97239,-75.175384
CollegevilleRdBlackRockRdMBFS,0.25,0.5,0.25,0.5,40.158006,-75.483114
ColumbiaAvrdSt,0.454545454545455,0.818181818181818,0.454545454545455,0.818181818181818,39.980715,-75.246402
ColumbiaAvrdStFS,0.166666666666667,0.166666666666667,0.166666666666667,0.166666666666667,39.980626,-75.246142
ColumbiaAvstSt,0.886363636363636,1.098484848484849,0.443181818181818,0.5492424242424245,39.9810535,-75.242774
ColumbiaAvthSt,0.333333333333333,0.666666666666667,0.333333333333333,0.666666666666667,39.981163,-75.241368
ColumbiaAvthStFS,0.0,0.641414141414142,0.0,0.320707070707071,39.981253,-75.241521
ColumbusBlvdAvPackerTerminal,0.875,0.5625,0.875,0.5625,39.90758,-75.139311
ColumbusBlvdCallowhillSt,0.0,0.0,0.0,0.0,39.95662,-75.138617
ColumbusBlvdCatherineStMBFS,0.75,0.125,0.375,0.0625,39.938421,-75.142032
ColumbusBlvdChestnutSt,0.176470588235294,0.941176470588235,0.176470588235294,0.941176470588235,39.947612,-75.141216
ColumbusBlvdChristianSt,0.0,0.0,0.0,0.0,39.93483466666667,-75.14264466666667
ColumbusBlvdDockSt,0.0,2.588235294117644,0.0,1.294117647058822,39.9451235,-75.14193399999999
ColumbusBlvdIRamp,0.25,1.5,0.125,0.75,39.9402515,-75.142426
ColumbusBlvdLombardCircle,0.125,0.625,0.0625,0.3125,39.941482,-75.142067
ColumbusBlvdMarketSt,0.0,0.5,0.0,0.5,39.950182,-75.141017
ColumbusBlvdPackerAvFS,1.3125,0.1875,1.3125,0.1875,39.907498,-75.138698
ColumbusBlvdPennsLanding,0.5,0.0,0.5,0.0,39.949708,-75.140735
ColumbusBlvdRaceSt,0.375,0.5,0.375,0.5,39.953401,-75.139752
ColumbusBlvdRaceStMBFS,0.0,0.705882352941177,0.0,0.705882352941177,39.952688,-75.140357
ColumbusBlvdReedSt,0.5,0.0,0.16666666666666666,0.0,39.92981666666666,-75.14426666666667
ColumbusBlvdReedStMBFS,0.222222222222222,0.5,0.111111111111111,0.25,39.929243,-75.14469
ColumbusBlvdSouthStFS,0.0,4.41176470588235,0.0,4.41176470588235,39.940537,-75.142472
ColumbusBlvdSpringGardenSt,0.565656565656566,0.5353535353535349,0.282828282828283,0.26767676767676746,39.960338,-75.137326
ColumbusBlvdSpruceSt,1.75,0.625,0.5833333333333334,0.20833333333333334,39.944117999999996,-75.142021
ColumbusBlvdTaskerSt,0.0,1.0,0.0,1.0,39.927513,-75.145074
ColumbusBlvdVineSt,0.0,1.0,0.0,1.0,39.955408,-75.139425
ColumbusBlvdVineStFS,0.0,0.25,0.0,0.25,39.955291,-75.139071
ColumbusBlvdWalnutSt,1.926470588235294,1.86029411764706,0.963235294117647,0.93014705882353,39.946466,-75.14166349999999
ColumbusBlvdWashingtonAv,0.25,0.125,0.125,0.0625,39.933239,-75.14334
ComlyRdBrandonRd,0.153846153846154,0.8547008547008549,0.05128205128205133,0.28490028490028496,40.092504999999996,-74.98730233333333
ComlyRdCarolineRd,0.181818181818182,0.818181818181818,0.181818181818182,0.818181818181818,40.10168,-74.99833
ComlyRdCarolineRdMBFS,0.0,0.388888888888889,0.0,0.1944444444444445,40.100148,-74.996659
ComlyRdComlyPl,0.222222222222222,0.0,0.074074074074074,0.0,40.090688666666665,-74.985184
ComlyRdDecaturRdFS,0.0,0.25,0.0,0.125,40.0939855,-74.989082
ComlyRdNestorRd,2.454545454545455,0.4797979797979799,0.8181818181818183,0.15993265993265995,40.103274,-74.99989833333332
ComlyRdNorcomRd,0.5909090909090909,1.1,0.29545454545454547,0.55,40.0991935,-74.9954815
ComlyRdNorcomRdMBFS,0.625,0.0,0.625,0.0,40.100219,-74.996552
ComlyRdRooseveltBlvdMBFS,0.181818181818182,0.42424242424242387,0.090909090909091,0.21212121212121193,40.104027,-75.000884
ComlyRdRooseveltBlvdMBNS,0.454545454545455,0.0909090909090909,0.454545454545455,0.0909090909090909,40.104009,-75.000636
ComlyRdThorntonRd,0.25,0.0,0.25,0.0,40.095801,-74.991384
ComlyRdThortonRdFS,0.230769230769231,0.230769230769231,0.230769230769231,0.230769230769231,40.096141,-74.991583
CommerceAvBlairMillRd,0.0,6.125,0.0,6.125,40.164384,-75.135024
CommerceDrBestWesternHotel,0.8333333333333333,0.0833333333333333,0.41666666666666663,0.04166666666666665,40.136179,-75.19951
CommerceDrBldg,0.25,3.8214285714285716,0.041666666666666664,0.636904761904762,40.13771083333334,-75.20309266666668
CommerceDrMacDonaldBlvd,0.882352941176471,0.647058823529412,0.882352941176471,0.647058823529412,39.850948,-75.404409
ConchesterHwyClaytonPark,0.0,0.272727272727273,0.0,0.272727272727273,39.863308,-75.486034
ConchesterHwyClaytonParkFS,0.222222222222222,0.0,0.111111111111111,0.0,39.86304,-75.485939
ConchesterHwyFeatherbedLn,0.0555555555555556,1.45454545454545,0.0277777777777778,0.727272727272725,39.866776,-75.492606
ConchesterHwyMattsonRd,0.0,0.181818181818182,0.0,0.181818181818182,39.866767,-75.492276
ConchesterHwySpringValleyRd,0.0,0.0,0.0,0.0,39.88079,-75.519044
ConcordRdBaldwinRunDr,0.470588235294118,0.117647058823529,0.470588235294118,0.117647058823529,39.857883,-75.408676
ConcordRdBaldwinRunLaFS,0.266666666666667,0.333333333333333,0.1333333333333335,0.1666666666666665,39.858026,-75.40857
ConcordRdBridgewaterRd,0.633333333333333,0.0,0.3166666666666665,0.0,39.85957,-75.410574
ConcordRdBridgewaterRdFS,0.529411764705882,0.235294117647059,0.529411764705882,0.235294117647059,39.859463,-75.410704
ConcordRdColonialCir,1.5,0.0,1.5,0.0,39.870495,-75.432381
ConcordRdGeraldDrFS,1.714285714285714,2.0,0.5714285714285713,0.6666666666666666,39.87068266666667,-75.43572333333333
ConcordRdGreenSt,0.0666666666666667,0.333333333333333,0.03333333333333335,0.1666666666666665,39.846101,-75.396947
ConcordRdGreenStFS,1.35294117647059,0.470588235294118,1.35294117647059,0.470588235294118,39.845895,-75.396841
ConcordRdIncineratorRdMBFS,0.0,0.444444444444444,0.0,0.444444444444444,39.850091,-75.401461
ConcordRdPancoastRd,1.88235294117647,0.427450980392157,0.6274509803921566,0.142483660130719,39.861950666666665,-75.413687
ConcordRdPennelRdFS,3.0,0.866666666666667,1.5,0.4333333333333335,39.869308,-75.428878
ConcordRdRedHillRdFS,1.0,0.5,0.5,0.25,39.870665,-75.432641
ConcourseDrERd,1.0,0.333333333333333,1.0,0.333333333333333,39.978756,-75.209856
ConshohockenAvCranstonRdMBFS,0.125,0.839285714285714,0.0625,0.419642857142857,40.001965,-75.212468
ConshohockenAvECntryClubMBFS,0.25,0.0833333333333333,0.25,0.0833333333333333,40.003263,-75.204286
ConshohockenAvECountryClub,2.5,0.625,0.8333333333333334,0.20833333333333334,40.00345766666667,-75.203277
ConshohockenAvECountryClubMBFS,0.0,0.333333333333333,0.0,0.333333333333333,40.004277,-75.202321
ConshohockenAvECountryClubMBNS,0.333333333333333,0.0,0.333333333333333,0.0,40.003094,-75.204771
ConshohockenAvWCntryClubMBNS,1.75,0.380952380952381,0.5833333333333334,0.126984126984127,40.00301866666666,-75.20594533333333
ConshohockenAvWCountryClub,0.5,0.125,0.16666666666666666,0.041666666666666664,40.002661999999994,-75.207786
ConshohockenAvWCountryClubMBFS,0.0,1.0625,0.0,0.53125,40.002874,-75.206308
ConshohockenCranstonMBFS,0.0,0.0625,0.0,0.03125,40.002274,-75.210091
ConshohockenDartmouthFS,0.176470588235294,0.0588235294117647,0.176470588235294,0.0588235294117647,40.016726,-75.238875
ConshohockenHagysFordRdFS,0.181818181818182,0.0,0.181818181818182,0.0,40.025241,-75.257683
ConshohockenStCentennialRd,0.0909090909090909,0.181818181818182,0.0909090909090909,0.181818181818182,40.023489,-75.256068
ConshohockenStHagysFordRd,0.5,0.75,0.5,0.75,40.025348,-75.257565
ConshohockenStateRdBalaAv,0.0,0.324675324675325,0.0,0.10822510822510834,40.007505333333334,-75.232739
ConshohockenStateRdCentennial,0.25,0.25,0.25,0.25,40.023318,-75.255147
ConshohockenStateRdDartmouth,0.0,1.25,0.0,1.25,40.016895,-75.238839
ConshohockenStateRdDerwenRd,0.0,0.176470588235294,0.0,0.176470588235294,40.012383,-75.235353
ConshohockenStateRdLevering,0.0,0.0,0.0,0.0,40.013401,-75.235965
ConshohockenStateRdLeveringMil,0.285714285714286,0.363636363636364,0.142857142857143,0.181818181818182,40.013473,-75.236201
ConshohockenStateRdLodgesLn,1.428571428571429,0.3409090909090909,0.47619047619047633,0.11363636363636363,40.010741,-75.23399433333334
ConshohockenStateRdMaplecrest,0.25,0.5,0.08333333333333333,0.16666666666666666,40.037130999999995,-75.27780933333334
ConshohockenStateRdOverhillRd,0.6764705882352939,0.25,0.33823529411764697,0.125,40.015135,-75.237426
ConshohockenStateRdRockHillRd,0.285714285714286,0.41558441558441594,0.142857142857143,0.20779220779220797,40.018254,-75.24029
ConshohockenStateRdRockhillRd,0.25,1.25,0.125,0.625,40.017843,-75.2398175
ConventAvAcademyRd,0.555555555555556,0.111111111111111,0.555555555555556,0.111111111111111,40.0625,-75.009684
ConventAvAndoverRd,0.863247863247864,0.29914529914529886,0.287749287749288,0.09971509971509962,40.06249533333334,-75.01093333333334
ConventAvAnnapolisRd,3.688034188034188,0.564102564102564,1.2293447293447293,0.188034188034188,40.062241666666665,-75.012642
ConventAvExeterRd,0.0769230769230769,0.153846153846154,0.03846153846153845,0.076923076923077,40.062111,-75.013613
ConventAvFordhamRdMBFS,0.555555555555556,0.111111111111111,0.555555555555556,0.111111111111111,40.061547,-75.015851
ConventAvWillitsRd,1.5769230769230769,0.0769230769230769,0.7884615384615384,0.03846153846153845,40.060011,-75.01832
ConventAvWillitsRdFS,0.0,0.0,0.0,0.0,40.060189,-75.018023
ConventAvWoodbridgeRdMBNS,1.5,0.230769230769231,0.75,0.1153846153846155,40.061637,-75.015898
CottmanAvBattersbySt,1.45,2.45357142857143,0.48333333333333334,0.8178571428571434,40.042363333333334,-75.050598
CottmanAvBrousAvFS,0.75,0.25,0.75,0.25,40.043124,-75.052127
CottmanAvCottageSt,0.0,0.5714285714285721,0.0,0.14285714285714302,40.033328999999995,-75.037773
CottmanAvEdmundSt,0.5,0.972222222222222,0.25,0.486111111111111,40.028555,-75.033845
CottmanAvErdrickSt,0.525,2.1428571428571397,0.17500000000000002,0.7142857142857132,40.03540266666666,-75.03943433333332
CottmanAvFrankfordAv,0.0,0.0,0.0,0.0,40.036878,-75.041153
CottmanAvGroveAv,1.0,0.153846153846154,1.0,0.153846153846154,40.066937,-75.093341
CottmanAvHawthorneSt,0.2,0.4,0.1,0.2,40.041445,-75.048908
CottmanAvJacksonSt,0.428571428571429,1.714285714285714,0.10714285714285725,0.4285714285714285,40.032258999999996,-75.03690950000001
CottmanAvLeonSt,1.477272727272727,0.431818181818182,0.7386363636363635,0.215909090909091,40.0377215,-75.04254399999999
CottmanAvOxfordAvFS,0.0,0.5,0.0,0.5,40.061064,-75.083292
CottmanAvRockwellAv,2.25,0.664285714285714,0.75,0.22142857142857134,40.063096,-75.08654999999999
CottmanAvRowlandAv,1.0,1.125,1.0,1.125,40.039597,-75.045962
CottmanAvRowlandAvFS,0.0,1.6,0.0,1.6,40.039767,-75.045985
CottmanAvRupertSt,0.25,0.125,0.25,0.125,40.045636,-75.056525
CottmanAvRyersAv,0.571428571428571,1.142857142857143,0.2857142857142855,0.5714285714285715,40.064866,-75.089743
CottmanAvSackettSt,0.125,1.925,0.03125,0.48125,40.040499,-75.0474055
CottmanAvWalkerSt,0.25,1.053571428571429,0.08333333333333333,0.35119047619047633,40.03437400000001,-75.038597
CottmanAvWhitakerAv,0.0,0.461538461538462,0.0,0.461538461538462,40.057369,-75.076923
CountyLineRdBarcalowAvFS,3.0,0.8125,1.5,0.40625,40.135299,-75.010535
CountyLineRdHuntingdonPk,0.875,0.579545454545455,0.4375,0.2897727272727275,40.158039,-75.048963
CountyLineRdHuntingdonPkFS,0.0,0.428571428571429,0.0,0.428571428571429,40.158379,-75.049222
CountyLineRdJamesWay,0.428571428571429,0.571428571428571,0.428571428571429,0.571428571428571,40.164004,-75.058738
CountyLineRdMannRdFS,0.3409090909090909,0.363636363636364,0.17045454545454544,0.181818181818182,40.162228,-75.055774
CountyLineRdMannRdMBFS,1.181818181818182,0.454545454545455,0.590909090909091,0.2272727272727275,40.161681,-75.055007
CourtBlvdAllendaleRdFS,0.142857142857143,1.07142857142857,0.142857142857143,1.07142857142857,40.089657,-75.38389
CourtBlvdAllendaleRdMBNS,0.294117647058824,0.0,0.294117647058824,0.0,40.089371,-75.384222
CourtBlvdMallBlvd,0.25,0.375,0.125,0.1875,40.088203,-75.387228
CourtlandStWindrumAv,0.285714285714286,0.0,0.142857142857143,0.0,40.024179,-75.156889
CourtlandStthSt,0.9999999999999997,1.9999999999999991,0.3333333333333332,0.6666666666666664,40.023834,-75.15450266666666
CranstonRdConshohockenAv,0.0,0.6875,0.0,0.34375,40.002025,-75.21099
CranstonRdConshohockenFS,0.416666666666667,0.25,0.416666666666667,0.25,40.001963,-75.211144
CranstonRdLankenauAv,0.25,0.25,0.25,0.25,40.000426,-75.209873
CranstonRdLankenauAvFS,1.64285714285714,0.571428571428571,1.64285714285714,0.571428571428571,40.000577,-75.209884
CranstonRdLankenauAvMBFS,0.117647058823529,0.117647058823529,0.117647058823529,0.117647058823529,40.001177,-75.210579
CreekPkwyConchesterHwyFS,0.45959595959596,0.363636363636364,0.22979797979798,0.181818181818182,39.852937,-75.460695
CreekRdCheyneyRdMBFS,0.181818181818182,0.0909090909090909,0.181818181818182,0.0909090909090909,39.931003,-75.526438
CreekRdCheyneyRdMBNS,0.0,0.0,0.0,0.0,39.930985,-75.526166
CreekRdFureyRd,0.0,0.0,0.0,0.0,39.85515,-75.460955
CrescentvilleAvAdamsAveFS,0.846153846153846,0.538461538461538,0.846153846153846,0.538461538461538,40.042384,-75.114018
CrescentvilleAvHammondAv,1.46153846153846,0.923076923076923,1.46153846153846,0.923076923076923,40.041263,-75.115583
CrescentvilleRdAdamsAv,0.428571428571429,0.0,0.2142857142857145,0.0,40.042294,-75.113852
CrescentvilleRdAdamsAvMBFS,0.133333333333333,1.0666666666666667,0.0666666666666665,0.5333333333333333,40.04372,-75.113066
CrescentvilleRdAdamsAvMBNS,0.133333333333333,0.4,0.0666666666666665,0.2,40.043774,-75.113231
CrescentvilleRdWalnutParkDrMBFS,0.0666666666666667,0.466666666666667,0.0666666666666667,0.466666666666667,40.044943,-75.112966
CrescentvilleWalnutPrkDrMBNS,0.633333333333333,0.133333333333333,0.3166666666666665,0.0666666666666665,40.044764,-75.11286
CrescoAvFullerStFS,0.2,0.0,0.1,0.0,40.048474,-75.030424
CressonRdEgyptRdMBNS,0.142857142857143,0.0,0.0714285714285715,0.0,40.132684,-75.450906
CrispinDrDartmouthPl,0.0,1.8,0.0,1.8,40.053598,-75.01138
CrispinDrHarvardPl,0.0,0.4,0.0,0.4,40.052619,-75.012272
CrispinDrPennypackSt,0.0,0.0,0.0,0.0,40.050264,-75.015278
CrispinStDartmouthPl,0.666666666666667,0.266666666666667,0.666666666666667,0.266666666666667,40.053393,-75.011428
CrispinStHarvardPlMBNS,0.133333333333333,0.133333333333333,0.133333333333333,0.133333333333333,40.052022,-75.012441
CrispinStPennypackStFS,0.2,0.2,0.2,0.2,40.050237,-75.015089
CrossingsDrFrostRd,0.0769230769230769,0.0769230769230769,0.0769230769230769,0.0769230769230769,40.115263,-74.897524
CrossingsDrNewportvilleRdMBFS,0.0,0.9230769230769229,0.0,0.46153846153846145,40.112232500000005,-74.899629
CrossingsDrNewportvilleRdMBNS,0.538461538461538,1.2307692307692268,0.269230769230769,0.6153846153846134,40.112291,-74.899771
CrozerKeystoneatBroomall,0.0,0.375,0.0,0.375,39.975787,-75.339399
CumberlandStRichmondSt,0.0,1.0,0.0,1.0,39.974296,-75.118227
DaggettStCallowhillStFS,1.42857142857143,1.0,0.714285714285715,0.5,39.969235,-75.250589
DarbyRdFulmerAvFS,0.0,0.0,0.0,0.0,39.973519,-75.301561
DarbyRdLlandilloRd,0.0,0.0,0.0,0.0,39.971893,-75.300241
DarbyRdLlandilloRdFS,0.0,0.6103896103896109,0.0,0.30519480519480546,39.972161,-75.300028
DarbyRdManoaRd,0.0,0.0,0.0,0.0,39.975921,-75.302703
DarbyRdMercerAv,0.0,0.0,0.0,0.0,39.97351,-75.301148
DarbyRdParkRd,0.0,0.0,0.0,0.0,39.970258,-75.298425
DarbyRdParkRdFS,0.0,0.0909090909090909,0.0,0.04545454545454545,39.970401,-75.298188
DarbyRdWestChesterPike,0.0,0.0909090909090909,0.0,0.04545454545454545,39.968712,-75.296562
DarbyRdWestChesterPkFS,0.285714285714286,0.0,0.142857142857143,0.0,39.968489,-75.29668
DarlingtonRdAlburgerAv,1.36363636363636,0.0909090909090909,1.36363636363636,0.0909090909090909,40.098082,-75.059766
DarlingtonRdAlexisLn,0.181818181818182,0.363636363636364,0.181818181818182,0.363636363636364,40.099213,-75.058671
DarlingtonRdFlagstaffRd,0.9380952380952381,0.0714285714285714,0.3126984126984127,0.023809523809523798,40.100205333333335,-75.05731300000001
DarlingtonRdStraffordDr,0.0,0.0,0.0,0.0,40.102538,-75.054524
DarlingtonRdStraffordRd,0.357142857142857,0.142857142857143,0.357142857142857,0.142857142857143,40.102842,-75.054428
DauphinStAmericanStFS,0.352941176470588,1.05882352941176,0.352941176470588,1.05882352941176,39.985381,-75.137153
DauphinStFrontSt,0.0,0.0,0.0,0.0,39.984745,-75.132347
DauphinStRidgeAv,0.0,0.5,0.0,0.5,39.991661,-75.18576
DauphinStndSt,0.0,1.5,0.0,1.5,39.989512,-75.16899
DeKalbPkColonialDrMBNS,0.25,0.355769230769231,0.125,0.1778846153846155,40.089708,-75.378294
DeKalbPkDekalbApts,0.2666666666666667,0.133333333333333,0.13333333333333336,0.0666666666666665,40.138561,-75.315792
DeKalbPkGermantownPkMBNS,0.34285714285714297,0.485714285714286,0.17142857142857149,0.242857142857143,40.143163,-75.311724
DeKalbPkGrasshopperLn,0.591666666666667,0.325,0.2958333333333335,0.1625,40.185854,-75.270827
DeKalbPkJohnsonHwyFS,0.3055555555555556,0.0555555555555556,0.1527777777777778,0.0277777777777778,40.129777,-75.324283
DeKalbPkJollyRd,0.4,0.0,0.4,0.0,40.158092,-75.299347
DeKalbPkJollyRdFS,0.0,0.0,0.0,0.0,40.158119,-75.29898
DeKalbPkMichaelsLn,0.733333333333333,0.0666666666666667,0.733333333333333,0.0666666666666667,40.159867,-75.297555
DeKalbPkMichaelsLnFS,0.0,0.0,0.0,0.0,40.159991,-75.297152
DeKalbPkNorthtowneShopCtr,0.125,0.125,0.125,0.125,40.138454,-75.315662
DeKalbPkSkippackPk,0.333333333333333,0.133333333333333,0.333333333333333,0.133333333333333,40.167695,-75.289641
DeKalbPkSkippackPkMBFS,0.0,0.142857142857143,0.0,0.142857142857143,40.16806,-75.289024
DeKalbPkSwedeRdMBFS,0.6,0.133333333333333,0.6,0.133333333333333,40.150272,-75.306585
DeKalbPkSwedeRdMBNS,0.25,0.5,0.25,0.5,40.150343,-75.306324
DeKalbPkTournamentDrFS,0.9428571428571431,0.0,0.47142857142857153,0.0,40.1756745,-75.28164050000001
DeKalbPkTownshipLineRd,1.833333333333333,0.133333333333333,0.3666666666666666,0.0266666666666666,40.162417,-75.29436799999999
DeKalbPkVillageSquareFS,0.0,0.0,0.0,0.0,40.170343,-75.28665
DeKalbPkYostRd,0.125,0.0,0.125,0.0,40.155203,-75.301958
DeKalbPkYostRdFS,0.8,0.133333333333333,0.8,0.133333333333333,40.154882,-75.302527
DeKalbStBrownSt,0.4,0.0,0.4,0.0,40.12531,-75.330504
DeKalbStElmSt,0.4,1.0,0.2,0.5,40.119818,-75.338347
DeKalbStFornanceStFS,0.2,0.0,0.2,0.0,40.123242,-75.33349
DeKalbStJohnsonHwy,0.2,0.0,0.2,0.0,40.129402,-75.324721
DeKalbStLoganSt,0.0,0.0,0.0,0.0,40.127575,-75.327269
DeKalbStMarshallSt,0.8,0.333333333333333,0.4,0.1666666666666665,40.116446,-75.340541
DeKalbStOakSt,0.2,0.2666666666666667,0.1,0.13333333333333336,40.117989,-75.339533
DeKalbStSchuylkillAv,0.285714285714286,0.2714285714285714,0.142857142857143,0.1357142857142857,40.111887,-75.343683
DeKalbStSpruceSt,0.0,0.4,0.0,0.4,40.120932,-75.336736
DeKalbStWoodStFS,0.0,0.0,0.0,0.0,40.122074,-75.335113
DecaturRdComlyRdMBFS,0.454545454545455,0.181818181818182,0.454545454545455,0.181818181818182,40.092765,-74.991024
DecaturRdComlyRdMBNSRoute,0.0909090909090909,0.272727272727273,0.0909090909090909,0.272727272727273,40.092587,-74.991061
DecaturRdComlyRdRoute,0.230769230769231,0.153846153846154,0.230769230769231,0.153846153846154,40.093856,-74.989183
DecaturRdDarnellRd,0.230769230769231,0.692307692307692,0.230769230769231,0.692307692307692,40.091183,-74.993104
DecaturRdDarnellRdFS,0.0,0.0,0.0,0.0,40.091246,-74.993258
DecaturRdDrummondRd,0.0769230769230769,0.0,0.0769230769230769,0.0,40.08883,-74.996538
DecaturRdDrummondRdMBFS,0.0,0.0,0.0,0.0,40.086619,-74.999959
DecaturRdDrummondRdMBNS,0.0909090909090909,0.272727272727273,0.0909090909090909,0.272727272727273,40.08669,-74.999663
DelawareAvColumbiaAv,0.588235294117647,0.529411764705882,0.588235294117647,0.529411764705882,39.967619,-75.128946
DelawareAvEllenSt,0.142857142857143,0.0,0.0714285714285715,0.0,39.963422,-75.135306
DelawareAvFrankfordAv,1.0404040404040409,0.444444444444445,0.2601010101010102,0.11111111111111124,39.9645795,-75.1341965
DelawareAvMontgomeryAv,0.117647058823529,0.470588235294118,0.117647058823529,0.470588235294118,39.969558,-75.126056
DelawareAvOregonAvMBFS,1.5625,0.4375,1.5625,0.4375,39.909845,-75.138818
DelawareAvOregonAvMBNS,1.125,0.5,1.125,0.5,39.909898,-75.138193
DelawareAvShackamaxonSt,0.0909090909090909,0.0,0.0909090909090909,0.0,39.965984,-75.131823
DelawareDrBldg,0.0,0.0,0.0,0.0,40.136529,-75.195401
DelmarDrAshlandAv,0.0,0.222222222222222,0.0,0.222222222222222,39.894082,-75.27952
DelmarDrHendersonBlvd,0.0,0.0,0.0,0.0,39.893165,-75.281375
DelmarDrHendersonMBNS,0.0,1.54545454545455,0.0,1.54545454545455,39.89222,-75.282545
DelmarDrPrimosAvFS,0.0,1.0,0.0,1.0,39.895275,-75.277063
DelmarDrSchoolLn,0.0,0.0,0.0,0.0,39.891713,-75.283407
DevereauxAvBrousAv,0.866666666666667,0.133333333333333,0.866666666666667,0.133333333333333,40.029097,-75.065512
DevereauxAvFarnsworthSt,0.0,0.2,0.0,0.2,40.030936,-75.068742
DevereauxAvLeonardSt,0.733333333333333,0.2,0.733333333333333,0.2,40.031824,-75.070369
DevereauxAvRevereSt,1.27272727272727,0.545454545454545,1.27272727272727,0.545454545454545,40.029967,-75.067009
DevereuxAvBrousAv,0.75,0.25,0.75,0.25,40.029071,-75.065785
DevereuxAvFarnsworthSt,1.125,2.5,1.125,2.5,40.03083,-75.06905
DevereuxAvLeonardSt,0.25,0.375,0.25,0.375,40.031754,-75.070665
DevereuxAvRevereSt,0.125,0.125,0.125,0.125,40.029924,-75.067412
DevonParkDr,1.571428571428569,0.5714285714285714,0.7857142857142845,0.2857142857142857,40.071466,-75.420121
DevonParkDrOldEagleSchoolRdMBNS,0.642857142857143,0.357142857142857,0.642857142857143,0.357142857142857,40.073938,-75.414301
DevonParkDrWestValleyRd,1.426470588235294,0.470588235294118,0.713235294117647,0.235294117647059,40.069994,-75.423907
DevonParkDrWestValleyRdMBFS,0.928571428571429,0.357142857142857,0.928571428571429,0.357142857142857,40.070056,-75.423445
DevonParkDrWestValleyRdMBNS,1.0,0.411764705882353,1.0,0.411764705882353,40.071359,-75.420772
DickinsonStndSt,0.5,0.416666666666667,0.5,0.416666666666667,39.935403,-75.197439
