"dist_name","stop_id","stop_name","stop_lat","stop_lon","the_geom"
"Central","33","17th St & Spring Garden St",39.963223,-75.166334,"0101000020E6100000A08D5C37A5CA52C0A4E029E44AFB4340"
"Central","34","17th St & Market St",39.953124,-75.168473,"0101000020E61000009450FA42C8CA52C030849CF7FFF94340"
"Central","35","17th St & Pine St",39.946264,-75.169997,"0101000020E6100000C2DA183BE1CA52C0EAB0C22D1FF94340"
"Central","36","17th St & Washington Av",39.938592,-75.171655,"0101000020E610000079CC4065FCCA52C0C4245CC823F84340"
"Central","43","16th St & Pine St ",39.945904,-75.168287,"0101000020E6100000E355D636C5CA52C0EA93DC6113F94340"
"Central","67","2nd St & Green St",39.961017,-75.141445,"0101000020E6100000B24B546F0DC952C034F3E49A02FB4340"
"Central","69","Front St & Market St Loop",39.949765,-75.142317,"0101000020E61000008D2AC3B81BC952C056F146E691F94340"
"Central","70","3rd St & Spring Garden St",39.960629,-75.14336,"0101000020E61000007EE36BCF2CC952C06A4B1DE4F5FA4340"
"Central","93","23rd St & Market St - FS ",39.95392,-75.177941,"0101000020E610000086E7A56263CB52C00A80F10C1AFA4340"
"Central","94","23rd St & Washington Av",39.93979,-75.181533,"0101000020E61000004489963C9ECB52C0CE8DE9094BF84340"
"Central","107","Arch St & 22nd St",39.95605,-75.176079,"0101000020E6100000CBA0DAE044CB52C09FABADD85FFA4340"
"Central","130","Walnut St & Broad St - MBNS",39.949303,-75.163657,"0101000020E6100000BCB0355B79CA52C0527FBDC282F94340"
"Central","131","Walnut St & 23rd St",39.951145,-75.178305,"0101000020E6100000A6ED5F5969CB52C080608E1EBFF94340"
"Central","145","Spruce St & 15th St",39.947238,-75.166333,"0101000020E6100000B7CF2A33A5CA52C0A4C343183FF94340"
"Central","148","Broad St & Washington Av ",39.938002,-75.166816,"0101000020E6100000C51C041DADCA52C092CA147310F84340"
"Central","283","13th St Trolley Station",39.952532,-75.162559,"0101000020E6100000E92ADD5D67CA52C05D328E91ECF94340"
"Central","309","Locust St & 20th St",39.94937,-75.174214,"0101000020E610000058207A5226CB52C0DAE6C6F484F94340"
"Central","310","Locust St & Broad St ",39.948172,-75.164783,"0101000020E6100000F4FBFECD8BCA52C0D07D39B35DF94340"
"Central","311","Pine St & 3rd St",39.943306,-75.147302,"0101000020E6100000AA285E656DC952C06F0F4240BEF84340"
"Central","315","23rd St & Spruce St",39.948835,-75.179045,"0101000020E6100000CAE0287975CB52C06C26DF6C73F94340"
"Central","358","20th St & Walnut St",39.950422,-75.173749,"0101000020E61000009D2D20B41ECB52C010B3976DA7F94340"
"Central","359","Market St & 6th St",39.950809,-75.150237,"0101000020E61000008C69A67B9DC952C009DFFB1BB4F94340"
"Central","362","19th St & Washington Av",39.938974,-75.174806,"0101000020E61000004149810530CB52C0ACE5CE4C30F84340"
"Central","428","2nd St Station - MFL",39.949795,-75.143758,"0101000020E61000007522C15433C952C0C173EFE192F94340"
"Central","515","15th St & Market St",39.952797,-75.165356,"0101000020E6100000A20C553195CA52C00B5D8940F5F94340"
"Central","584","27th St & Poplar St",39.972757,-75.180674,"0101000020E6100000334FAE2990CB52C040FA264D83FC4340"
"Central","593","Penn's Landing - 1",39.948716,-75.140231,"0101000020E6100000AAB8718BF9C852C09198A0866FF94340"
"Central","638","5th St & Market St - FS",39.951047,-75.14876,"0101000020E6100000FDBCA94885C952C0BEFA78E8BBF94340"
"Central","640","Art Museum Dr & Back Entrance - 2",39.966397,-75.182102,"0101000020E610000051A2258FA7CB52C0ECF99AE5B2FB4340"
"Central","659","South St & 22nd St",39.94522,-75.178668,"0101000020E6100000DF35E84B6FCB52C037C30DF8FCF84340"
"Central","660","South St & Broad St",39.943605,-75.165721,"0101000020E6100000ABD0402C9BCA52C0C9AB730CC8F84340"
"Central","663","Lombard St & Broad St",39.944675,-75.165174,"0101000020E61000009109F83592CA52C0A52C431CEBF84340"
"Central","664","Lombard St & 22nd St",39.946326,-75.178216,"0101000020E6100000EFE714E467CB52C060ADDA3521F94340"
"Central","673","Spruce St & 2nd St",39.944523,-75.144747,"0101000020E61000006CCCEB8843C952C0EFA83121E6F84340"
"Central","680","Spring Garden St & 22nd St - FS",39.963944,-75.174244,"0101000020E61000008D614ED026CB52C07496598462FB4340"
"Central","681","Spring Garden St & Broad St",39.962365,-75.161636,"0101000020E6100000CD76853E58CA52C053E8BCC62EFB4340"
"Central","684","Beach St & Columbia Av",39.966923,-75.128736,"0101000020E61000005874EB353DC852C007600322C4FB4340"
"Central","687","Spring Garden St & Front St",39.960458,-75.138767,"0101000020E6100000E6B0FB8EE1C852C03E97A949F0FA4340"
"Central","689","Spring Garden St & Broad St",39.962507,-75.161317,"0101000020E61000007CD2890453CA52C0E695EB6D33FB4340"
"Central","690","Spring Garden St & 22nd St ",39.964177,-75.174303,"0101000020E61000000F26C5C727CB52C01747E5266AFB4340"
"Central","728","8th St & Market St",39.951343,-75.153624,"0101000020E61000005DF8C1F9D4C952C0A723809BC5F94340"
"Central","735","7th St & Market St",39.950795,-75.151949,"0101000020E61000003C6A4C88B9C952C0A4198BA6B3F94340"
"Central","736","7th St & Spring Garden St",39.961286,-75.149782,"0101000020E6100000E3E13D0796C952C0240D6E6B0BFB4340"
"Central","748","23rd St & Spring Garden St",39.964421,-75.176121,"0101000020E6100000E2C8039145CB52C0AE49B72572FB4340"
"Central","756","12th St & Market St",39.952187,-75.15995,"0101000020E6100000B1BFEC9E3CCA52C093567C43E1F94340"
"Central","849","4th St & Girard Av - FS",39.969795,-75.143217,"0101000020E6100000CDCEA2772AC952C08369183E22FC4340"
"Central","850","4th St & Market St",39.950481,-75.147309,"0101000020E6100000045ABA826DC952C0153C855CA9F94340"
"Central","857","3rd St & Market St",39.950023,-75.145646,"0101000020E6100000C4B2994352C952C052B9895A9AF94340"
"Central","915","9th St & Cuthbert St",39.952836,-75.154799,"0101000020E6100000069D103AE8C952C0C939B187F6F94340"
"Central","1167","23rd St & Race St - FS",39.957863,-75.177077,"0101000020E6100000ECF7C43A55CB52C0348639419BFA4340"
"Central","1220","8th St & Spring Garden St - MBFS",39.960969,-75.151862,"0101000020E610000054E0641BB8C952C023BC3D0801FB4340"
"Central","1278","Fairmount Station - BSL",39.967039,-75.160461,"0101000020E610000024D236FE44CA52C0707A17EFC7FB4340"
"Central","1279","Spring Garden Station - BSL",39.962392,-75.161471,"0101000020E61000002810768A55CA52C04DF73AA92FFB4340"
"Central","1280","Race Vine Station - BSL",39.95703,-75.162601,"0101000020E61000000053060E68CA52C03CA583F57FFA4340"
"Central","1281","City Hall Station - BSL",39.952473,-75.164129,"0101000020E6100000D0D4EB1681CA52C058A9A0A2EAF94340"
"Central","1282","Walnut Locust Station - BSL",39.948734,-75.164462,"0101000020E6100000D3DB9F8B86CA52C0384D9F1D70F94340"
"Central","1283","Lombard South Station - BSL",39.944077,-75.165471,"0101000020E6100000EE5BAD1397CA52C0F1F3DF83D7F84340"
"Central","1313","Poplar St & 29th St",39.973156,-75.183862,"0101000020E61000008A3E1F65C4CB52C0FEF3346090FC4340"
"Central","1321","Vine St & 19th St",39.959126,-75.170246,"0101000020E610000097917A4FE5CA52C0245F09A4C4FA4340"
"Central","1392","15th St Station - MFL",39.952573,-75.165286,"0101000020E6100000251FBB0B94CA52C0BC067DE9EDF94340"
"Central","1721","13th St & Market St - MBFS",39.952672,-75.161283,"0101000020E6100000A699EE7552CA52C04FE8F527F1F94340"
"Central","2440","Chinatown Station - BSL",39.955028,-75.152795,"0101000020E610000082FFAD64C7C952C0D461855B3EFA4340"
"Central","2455","13th St Station - MFL",39.952065,-75.16145,"0101000020E61000001C7C613255CA52C047551344DDF94340"
"Central","2456","11th St Station - MFL",39.951693,-75.158322,"0101000020E6100000300F99F221CA52C0836A8313D1F94340"
"Central","2457","8th St Station - MFL",39.951102,-75.153589,"0101000020E61000009F01F566D4C952C08194D8B5BDF94340"
"Central","2458","5th St Independence Hall Station - MFL",39.95053,-75.148939,"0101000020E61000005586713788C952C0F6EE8FF7AAF94340"
"Central","2459","Spring Garden Station - MFL",39.960533,-75.140337,"0101000020E6100000CD5A0A48FBC852C048DDCEBEF2FA4340"
"Central","2635","Carpenter St & 15th St",39.939317,-75.168098,"0101000020E610000079211D1EC2CA52C0D6C9198A3BF84340"
"Central","2654","16th St & Bainbridge St",39.94311,-75.168887,"0101000020E61000000D6E6B0BCFCA52C0E94317D4B7F84340"
"Central","2657","16th St & Callowhill St ",39.959883,-75.165236,"0101000020E6100000CC07043A93CA52C0417E3672DDFA4340"
"Central","2658","16th St & Catherine St",39.94114,-75.169319,"0101000020E6100000DAE55B1FD6CA52C08D7A884677F84340"
"Central","2660","16th St & Chestnut St",39.95114,-75.167146,"0101000020E610000010EA2285B2CA52C06FF59CF4BEF94340"
"Central","2663","17th St & Carpenter St ",39.939764,-75.171412,"0101000020E61000001689096AF8CA52C0A4FACE2F4AF84340"
"Central","2664","17th St & Catherine St ",39.941527,-75.171018,"0101000020E6100000C0417BF5F1CA52C087A6ECF483F84340"
"Central","2666","17th St & Chestnut St",39.951519,-75.168845,"0101000020E6100000F645425BCECA52C0E542E55FCBF94340"
"Central","2667","17th St & Christian St ",39.94076,-75.171186,"0101000020E61000001EE21FB6F4CA52C046B1DCD26AF84340"
"Central","2677","17th St & Fairmount Av",39.967237,-75.165421,"0101000020E61000009544F64196CA52C0963D096CCEFB4340"
"Central","2679","17th St & Fitzwater St ",39.942535,-75.170802,"0101000020E6100000D905836BEECA52C0ED2AA4FCA4F84340"
"Central","2681","17th St & Green St ",39.964463,-75.166034,"0101000020E61000008A01124DA0CA52C0DD99098673FB4340"
"Central","2682","17th St & Hamilton St - MBNS",39.961671,-75.166647,"0101000020E61000007FBE2D58AACA52C07D410B0918FB4340"
"Central","2687","17th St & JFK Blvd",39.954124,-75.168268,"0101000020E6100000A73D25E7C4CA52C0132A38BC20FA4340"
"Central","2692","17th St & Lombard St ",39.945372,-75.17019,"0101000020E6100000CD069964E4CA52C0ED461FF301F94340"
"Central","2707","17th St & Race St ",39.956925,-75.167691,"0101000020E610000059350873BBCA52C0C6DCB5847CFA4340"
"Central","2709","17th St & Ridge Av ",39.970609,-75.164724,"0101000020E6100000723788D68ACA52C0051A6CEA3CFC4340"
"Central","2715","17th St & South St ",39.944364,-75.170382,"0101000020E6100000EF74E789E7CA52C087C267EBE0F84340"
"Central","2726","17th St & Vine St",39.958834,-75.167271,"0101000020E61000006EA46C91B4CA52C07D259012BBFA4340"
"Central","2727","17th St & Wallace St ",39.965828,-75.165734,"0101000020E61000007575C7629BCA52C0D2C77C40A0FB4340"
"Central","2742","19th St & Brown St",39.968975,-75.168285,"0101000020E610000012DA722EC5CA52C020D26F5F07FC4340"
"Central","2743","19th St & Callowhill St",39.960678,-75.170063,"0101000020E61000009ED0EB4FE2CA52C04CFE277FF7FA4340"
"Central","2751","19th St & Fairmount Av",39.967333,-75.168634,"0101000020E610000098BF42E6CACA52C0B9AB5791D1FB4340"
"Central","2754","19th St & Green St",39.964871,-75.169162,"0101000020E6100000766EDA8CD3CA52C0EEED96E480FB4340"
"Central","2755","19th St & Hamilton St",39.962132,-75.169751,"0101000020E6100000A75D4C33DDCA52C0B037312427FB4340"
"Central","2770","19th St & Parrish St",39.970045,-75.168045,"0101000020E610000068D0D03FC1CA52C0FC523F6F2AFC4340"
"Central","2780","19th St & Spring Garden St",39.963604,-75.16945,"0101000020E6100000A913D044D8CA52C0BB25396057FB4340"
"Central","2784","19th St & Vine St",39.959197,-75.170411,"0101000020E61000003CF88903E8CA52C0EEB5A0F7C6FA4340"
"Central","2799","20th St & Ben Franklin Pkwy",39.958695,-75.172027,"0101000020E6100000DBC1887D02CB52C05BEB8B84B6FA4340"
"Central","2801","20th St & Brown St",39.96896,-75.169726,"0101000020E6100000FAD170CADCCA52C0EB909BE106FC4340"
"Central","2802","20th St & Callowhill St",39.960717,-75.17154,"0101000020E61000002C7DE882FACA52C00ADB4FC6F8FA4340"
"Central","2807","20th St & Fairmount Av",39.967149,-75.170099,"0101000020E61000004485EAE6E2CA52C0F7ADD689CBFB4340"
"Central","2811","20th St & Green St",39.964892,-75.170615,"0101000020E6100000404D2D5BEBCA52C00516C09481FB4340"
"Central","2812","20th St & Hamilton St",39.962171,-75.171204,"0101000020E6100000713C9F01F5CA52C06E14596B28FB4340"
"Central","2821","20th St & Market St",39.95392,-75.173194,"0101000020E61000004277499C15CB52C00A80F10C1AFA4340"
"Central","2828","20th St & Parrish St",39.970093,-75.169486,"0101000020E610000050C8CEDBD8CA52C00D8AE6012CFC4340"
"Central","2834","20th St & Poplar St",39.971313,-75.169213,"0101000020E6100000B743C362D4CA52C0FF9600FC53FC4340"
"Central","2836","20th St & Race St",39.957345,-75.172331,"0101000020E610000091459A7807CB52C09BFEEC478AFA4340"
"Central","2850","22nd St & Winter St",39.959083,-75.17549,"0101000020E61000009AB1683A3BCB52C02593533BC3FA4340"
"Central","2854","23rd St & Aspen St",39.968605,-75.175196,"0101000020E6100000F698486936CB52C0FCDEA63FFBFB4340"
"Central","2863","23rd St & Green St",39.965715,-75.175821,"0101000020E6100000CD3CB9A640CB52C0DA20938C9CFB4340"
"Central","2880","27th St & Parrish St",39.971508,-75.18095,"0101000020E6100000840D4FAF94CB52C0B4E6C75F5AFC4340"
"Central","2899","29th St & Ogden St - FS",39.972353,-75.184019,"0101000020E6100000EEB5A0F7C6CB52C07095271076FC4340"
"Central","2902","29th St & Pennsylvania Av",39.971408,-75.184235,"0101000020E6100000D4F19881CACB52C05089EB1857FC4340"
"Central","3024","16th St & Cherry St",39.95561,-75.166137,"0101000020E6100000F56915FDA1CA52C083DDB06D51FA4340"
"Central","3031","16th St & Fairmount Av",39.967019,-75.163686,"0101000020E61000000934D8D479CA52C029CE5147C7FB4340"
"Central","3033","16th St & Fitzwater St",39.942129,-75.169114,"0101000020E6100000EDD286C3D2CA52C07DCEDDAE97F84340"
"Central","3035","16th St & Mt Vernon St",39.964762,-75.164178,"0101000020E6100000412E71E481CA52C037363B527DFB4340"
"Central","3036","16th St & Hamilton St",39.961273,-75.164923,"0101000020E6100000EDD632198ECA52C08FC360FE0AFB4340"
"Central","3040","16th St & JFK Blvd",39.953654,-75.166569,"0101000020E6100000C1E10511A9CA52C08CD9925511FA4340"
"Central","3042","16th St & Locust St ",39.948535,-75.167698,"0101000020E6100000B2666490BBCA52C0410E4A9869F94340"
"Central","3055","16th St & Poplar St ",39.970402,-75.162909,"0101000020E610000057CEDE196DCA52C08BFCFA2136FC4340"
"Central","3057","16th St & Race St",39.956528,-75.165945,"0101000020E6100000D2FBC6D79ECA52C0A9DA6E826FFA4340"
"Central","3059","16th St & Ridge Av",39.968971,-75.16324,"0101000020E61000008A592F8672CA52C0DFE2E13D07FC4340"
"Central","3063","16th St & South St",39.943986,-75.168695,"0101000020E6100000EBFF1CE6CBCA52C0E1F08288D4F84340"
"Central","3064","16th St & Spruce St",39.947322,-75.167951,"0101000020E610000027158DB5BFCA52C00264E8D841F94340"
"Central","3069","16th St & Walnut St",39.949642,-75.167482,"0101000020E6100000CC2A6C06B8CA52C03A747ADE8DF94340"
"Central","3076","17th St & Arch St",39.955096,-75.168076,"0101000020E610000085CFD6C1C1CA52C02C45F29540FA4340"
"Central","3077","17th St & Bainbridge St",39.943499,-75.170574,"0101000020E610000011E335AFEACA52C084674293C4F84340"
"Central","3078","17th St & Ben Franklin Pkwy",39.956077,-75.167872,"0101000020E6100000817A336ABECA52C099BA2BBB60FA4340"
"Central","3080","17th St & Brown St",39.968566,-75.165133,"0101000020E6100000629F008A91CA52C03F027FF8F9FB4340"
"Central","3081","17th St & Callowhill St",39.960279,-75.166935,"0101000020E6100000B2632310AFCA52C08E041A6CEAFA4340"
"Central","3092","21st St & Arch St",39.955931,-75.174675,"0101000020E6100000711B0DE02DCB52C0C51D6FF25BFA4340"
"Central","3098","21st St & Race St",39.957742,-75.174267,"0101000020E61000006971C63027CB52C0B900344A97FA4340"
"Central","3103","21st St & Winter St - FS",39.958892,-75.174026,"0101000020E6100000D6A9F23D23CB52C0B1321AF9BCFA4340"
"Central","3107","22nd St & Ben Franklin Pkwy",39.960814,-75.175141,"0101000020E610000014CC988235CB52C0FCC401F4FBFA4340"
"Central","3124","22nd St & Fairmount Av",39.967201,-75.173678,"0101000020E61000003882548A1DCB52C04AD40B3ECDFB4340"
"Central","3129","22nd St & Green St",39.96531,-75.174098,"0101000020E61000002313F06B24CB52C03A4030478FFB4340"
"Central","3145","22nd St & Mt Vernon St",39.966121,-75.173918,"0101000020E6100000E38BF67821CB52C04A7D59DAA9FB4340"
"Central","3155","22nd St & Race St",39.957754,-75.175755,"0101000020E6100000F146E6913FCB52C07DCEDDAE97FA4340"
"Central","3167","22nd St & Spring Garden St",39.963918,-75.17441,"0101000020E61000001A868F8829CB52C04B033FAA61FB4340"
"Central","3210","Market St & 2nd St - 1 MBNS",39.950017,-75.143237,"0101000020E6100000F0A485CB2AC952C070D234289AF94340"
"Central","3492","Arch St & 4th St - FS",39.952444,-75.147018,"0101000020E6100000187B2FBE68C952C0BEA25BAFE9F94340"
"Central","3582","Market St & 5th St",39.95061,-75.148702,"0101000020E610000063B6645584C952C012A0A696ADF94340"
"Central","4459","Arch St & 10th St",39.953598,-75.156166,"0101000020E6100000D1AFAD9FFEC952C0F8C3CF7F0FFA4340"
"Central","4460","Arch St & 12th St",39.953971,-75.159318,"0101000020E610000081EA1F4432CA52C08D2AC3B81BFA4340"
"Central","4461","Arch St & 13th St",39.95417,-75.160876,"0101000020E610000086ADD9CA4BCA52C08369183E22FA4340"
"Central","4462","Arch St & 15th St",39.954652,-75.164676,"0101000020E6100000E99B340D8ACA52C0CF87670932FA4340"
"Central","4463","Arch St & 17th St",39.955051,-75.167875,"0101000020E610000039B4C876BECA52C08C81751C3FFA4340"
"Central","4464","Arch St & 19th St",39.955459,-75.171039,"0101000020E6100000CBD58F4DF2CA52C09DD5027B4CFA4340"
"Central","4465","Arch St & 20th St",39.95565,-75.172609,"0101000020E6100000B27F9E060CCB52C011363CBD52FA4340"
"Central","4467","Arch St & 3rd St",39.952208,-75.145082,"0101000020E6100000404F030649C952C0AA7EA5F3E1F94340"
"Central","4469","Arch St & 5th St",39.952617,-75.14834,"0101000020E6100000132C0E677EC952C08B4E965AEFF94340"
"Central","4470","Arch St & 6th St",39.952816,-75.149804,"0101000020E6100000D733846396C952C0828DEBDFF5F94340"
"Central","4471","Arch St & 7th St",39.952999,-75.151456,"0101000020E61000001CB28174B1C952C0730F09DFFBF94340"
"Central","4472","Arch St & 8th St",39.953171,-75.152944,"0101000020E6100000A587A1D5C9C952C0703FE08101FA4340"
"Central","4474","Arch St & Broad St",39.954416,-75.16287,"0101000020E6100000F8DF4A766CCA52C0BB63B14D2AFA4340"
"Central","4549","Aspen st & 24th St",39.968715,-75.176543,"0101000020E61000009DD5027B4CCB52C0841266DAFEFB4340"
"Central","4550","Apsen St & 25th St",39.96895,-75.17816,"0101000020E6100000255D33F966CB52C0C7BAB88D06FC4340"
"Central","4557","Aspen St & Taney St",39.969223,-75.180616,"0101000020E6100000994869368FCB52C0F8C3CF7F0FFC4340"
"Central","5131","Broad St & Arch St",39.954524,-75.163319,"0101000020E610000030F488D173CA52C0A19FA9D72DFA4340"
"Central","5135","Broad St & Bainbridge St",39.942641,-75.165618,"0101000020E610000040683D7C99CA52C0336FD575A8F84340"
"Central","5144","Broad St & Brown St",39.967958,-75.160363,"0101000020E6100000431F2C6343CA52C067F3380CE6FB4340"
"Central","5152","Broad St & Catherine St",39.940687,-75.16605,"0101000020E61000000DE02D90A0CA52C0DC627E6E68F84340"
"Central","5195","Broad St & Fitzwater St",39.941668,-75.165834,"0101000020E610000027A435069DCA52C049D8B79388F84340"
"Central","5229","Broad St & Locust St",39.948082,-75.164453,"0101000020E6100000A92EE06586CA52C090F63FC05AF94340"
"Central","5233","Broad St & Lombard St",39.944514,-75.16521,"0101000020E610000038BEF6CC92CA52C09C4EB2D5E5F84340"
"Central","5277","Broad St & Parrish St",39.969091,-75.160135,"0101000020E61000007AFCDEA63FCA52C089EC832C0BFC4340"
"Central","5281","Broad St & Pine St",39.945433,-75.165018,"0101000020E61000001650A8A78FCA52C093C7D3F203F94340"
"Central","5318","Broad St & Spruce St",39.946869,-75.164705,"0101000020E6100000361FD7868ACA52C0514CDE0033F94340"
"Central","5369","Brown St & 23rd St",39.969685,-75.17498,"0101000020E6100000105D50DF32CB52C0FC3559A31EFC4340"
"Central","5370","Brown St & 24th St",39.969866,-75.17655,"0101000020E6100000F7065F984CCB52C04DC0AF9124FC4340"
"Central","5371","Brown St & 25th St",39.970066,-75.178168,"0101000020E6100000664CC11A67CB52C0147B681F2BFC4340"
"Central","5372","Brown St & 26th St",39.970283,-75.179773,"0101000020E61000000BED9C6681CB52C0B16EBC3B32FC4340"
"Central","5373","Brown St & 28th St",39.970646,-75.182772,"0101000020E6100000F8A75489B2CB52C022FFCC203EFC4340"
"Central","6057","Chestnut St & 11th St",39.950168,-75.158765,"0101000020E6100000F7AFAC3429CA52C055DAE21A9FF94340"
"Central","6058","Chestnut St & 12th St",39.950349,-75.160335,"0101000020E6100000DE59BBED42CA52C0A6643909A5F94340"
"Central","6059","Chestnut St & 13th St",39.95054,-75.161881,"0101000020E6100000003620425CCA52C019C5724BABF94340"
"Central","6060","Chestnut St & 15th St",39.951012,-75.165717,"0101000020E61000000AD9791B9BCA52C0410DDFC2BAF94340"
"Central","6061","Chestnut St & 17th St",39.951385,-75.168869,"0101000020E6100000BA13ECBFCECA52C0D673D2FBC6F94340"
"Central","6062","Chestnut St & 18th St",39.951602,-75.170462,"0101000020E61000007DCD72D9E8CA52C073672618CEF94340"
"Central","6064","Chestnut St & 20th St",39.952001,-75.173578,"0101000020E61000008753E6E61BCB52C03161342BDBF94340"
"Central","6065","Chestnut St & 21st St",39.952229,-75.175502,"0101000020E61000007C98BD6C3BCB52C0C2A6CEA3E2F94340"
"Central","6066","Chestnut St & 22nd St - FS",39.952392,-75.176754,"0101000020E6100000FB5B02F04FCB52C06C7C26FBE7F94340"
"Central","6067","Chestnut St & 23rd St",39.952591,-75.178276,"0101000020E6100000596ABDDF68CB52C062BB7B80EEF94340"
"Central","6111","Chestnut St & 6th St",39.949187,-75.150916,"0101000020E61000005C1C959BA8C952C0E964A9F57EF94340"
"Central","6112","Chestnut St & 7th St",39.949377,-75.152486,"0101000020E610000043C6A354C2C952C08C497F2F85F94340"
"Central","6113","Chestnut St & 8th St",39.949568,-75.154068,"0101000020E61000000C570740DCC952C000AAB8718BF94340"
"Central","6114","Chestnut St & 9th St",39.949768,-75.155661,"0101000020E6100000CF108E59F6C952C0C76471FF91F94340"
"Central","6115","Chestnut St & Broad St",39.950804,-75.164041,"0101000020E6100000008DD2A57FCA52C0F7730AF2B3F94340"
"Central","7657","Market St & Front St",39.949649,-75.142329,"0101000020E61000006F1118EB1BC952C0EDD632198EF94340"
"Central","8936","JFK Blvd & 17th St",39.954061,-75.168056,"0101000020E610000062F9F36DC1CA52C0CDB1BCAB1EFA4340"
"Central","8938","JFK Blvd & 18th St",39.954251,-75.169567,"0101000020E6100000C6DE8B2FDACA52C0709692E524FA4340"
"Central","8939","JFK Blvd & 19th St",39.95446,-75.171208,"0101000020E610000011346612F5CA52C08AABCABE2BFA4340"
"Central","8941","JFK Blvd & 20th St",39.954633,-75.17279,"0101000020E6100000DBC4C9FD0ECB52C05857056A31FA4340"
"Central","10255","Market St & 10th St",39.951512,-75.157213,"0101000020E610000063601DC70FCA52C033E02C25CBF94340"
"Central","10257","Market St & 10th St",39.951573,-75.156563,"0101000020E6100000E030D12005CA52C0D960E124CDF94340"
"Central","10258","Market St & 11th St",39.951782,-75.158109,"0101000020E6100000020D36751ECA52C0F37519FED3F94340"
"Central","10259","Market St & 11th St - MBNS",39.951748,-75.159208,"0101000020E6100000BE50C07630CA52C04704E3E0D2F94340"
"Central","10262","Market St & 12th St",39.951954,-75.15955,"0101000020E6100000EA04341136CA52C0F0A5F0A0D9F94340"
"Central","10263","Market St & 13th St",39.95203,-75.161604,"0101000020E6100000C7B94DB857CA52C0CB67791EDCF94340"
"Central","10264","Market St & 13th St",39.952154,-75.161261,"0101000020E6100000B247A81952CA52C0B760A92EE0F94340"
"Central","10266","Market St & 15th St",39.952547,-75.165475,"0101000020E61000008F53742497CA52C09373620FEDF94340"
"Central","10272","Market St & 18th St",39.953119,-75.170173,"0101000020E6100000626A4B1DE4CA52C01E19ABCDFFF94340"
"Central","10275","Market St & 19th St",39.953319,-75.17172,"0101000020E61000006C04E275FDCA52C0E5D3635B06FA4340"
"Central","10279","Market St & 21st St",39.95387,-75.174918,"0101000020E6100000D55E44DB31CB52C05951836918FA4340"
"Central","10281","Market St & 22nd St",39.954069,-75.1765,"0101000020E61000009EEFA7C64BCB52C04F90D8EE1EFA4340"
"Central","10282","Market St & 23rd St",39.954214,-75.177657,"0101000020E6100000F33977BB5ECB52C053B131AF23FA4340"
"Central","10283","Market St & 23rd St",39.95409,-75.177929,"0101000020E6100000A400513063CB52C067B8019F1FFA4340"
"Central","10285","Market St & 24th St",39.954253,-75.179251,"0101000020E61000009EB12FD978CB52C0118E59F624FA4340"
"Central","10288","Market St & 2nd St",39.949894,-75.143852,"0101000020E6100000B5DD04DF34C952C05455682096F94340"
"Central","10311","Market St & 4th St",39.950401,-75.147085,"0101000020E6100000DC2E34D769C952C0F88A6EBDA6F94340"
"Central","10329","Market St & 6th St",39.950703,-75.150544,"0101000020E6100000FA264D83A2C952C0C39ACAA2B0F94340"
"Central","10331","Market St & 7th St",39.950876,-75.152149,"0101000020E61000009FC728CFBCC952C09146054EB6F94340"
"Central","10338","Market St & 8th St",39.951191,-75.153365,"0101000020E610000077D66EBBD0C952C0F19F6EA0C0F94340"
"Central","10340","Market St & 9th St",39.95133,-75.155714,"0101000020E6100000E161DA37F7C952C012DA722EC5F94340"
"Central","10341","Market St & 9th St",39.951382,-75.154958,"0101000020E61000003A90F5D4EAC952C06500A8E2C6F94340"
"Central","12270","Francis St & Field St",39.969466,-75.164326,"0101000020E61000007BF8325184CA52C0BE4A3E7617FC4340"
"Central","13188","16th St & Spring Garden St ",39.962702,-75.164623,"0101000020E6100000D84AE82E89CA52C09BE5B2D139FB4340"
"Central","14883","Walnut St & 9th St",39.948322,-75.155666,"0101000020E610000058C6866EF6C952C0E509849D62F94340"
"Central","14079","Walnut St & 15th St",39.949576,-75.165805,"0101000020E6100000DA20938C9CCA52C08388D4B48BF94340"
"Central","14080","Walnut St & 16th St",39.949775,-75.167399,"0101000020E610000085984BAAB6CA52C07AC7293A92F94340"
"Central","14081","Walnut St & 17th St",39.949975,-75.168968,"0101000020E61000008484285FD0CA52C04182E2C798F94340"
"Central","14084","Walnut St & 18th St",39.950148,-75.170456,"0101000020E61000000C5A48C0E8CA52C00E2E1D739EF94340"
"Central","14085","Walnut St & 19th St",39.950374,-75.172108,"0101000020E610000051D845D103CB52C0FE7BF0DAA5F94340"
"Central","14086","Walnut St & 20th St",39.950574,-75.173643,"0101000020E61000007A8B87F71CCB52C0C636A968ACF94340"
"Central","14088","Walnut St & 21st St",39.95081,-75.175531,"0101000020E6100000CA1B60E63BCB52C0D95A5F24B4F94340"
"Central","14089","Walnut St & 22nd St",39.951,-75.177172,"0101000020E610000015713AC956CB52C07D3F355EBAF94340"
"Central","14880","Walnut St & 5th St - FS",39.947586,-75.14973,"0101000020E6100000BA4E232D95C952C0E012807F4AF94340"
"Central","14881","Walnut St & 7th St",39.947923,-75.152515,"0101000020E6100000904946CEC2C952C02810768A55F94340"
"Central","14882","Walnut St & 8th St",39.948131,-75.154061,"0101000020E6100000B325AB22DCC952C071A94A5B5CF94340"
"Central","14884","Walnut St & 10th St",39.948513,-75.157213,"0101000020E610000063601DC70FCA52C0596ABDDF68F94340"
"Central","14885","Walnut St & 11th St",39.948704,-75.15883,"0101000020E6100000EAE74D452ACA52C0CDCAF6216FF94340"
"Central","14886","Walnut St & 12th St",39.948895,-75.160388,"0101000020E6100000EFAA07CC43CA52C0412B306475F94340"
"Central","14887","Walnut St & 13th St",39.949086,-75.162005,"0101000020E61000007632384A5ECA52C0B58B69A67BF94340"
"Central","14906","Chestnut St & 19th St",39.95182,-75.172008,"0101000020E6100000A0A9D72D02CB52C0E0D6DD3CD5F94340"
"Central","14907","Chestnut St & 16th St",39.951203,-75.167311,"0101000020E6100000B5503239B5CA52C0B56D1805C1F94340"
"Central","14908","Chestnut St & 10th St",39.949959,-75.157195,"0101000020E610000010069E7B0FCA52C03BC5AA4198F94340"
"Central","14909","Chestnut St & 4th St - MBNS",39.948868,-75.14826,"0101000020E610000084D382177DC952C0471CB28174F94340"
"Central","14910","19th St & Wallace St",39.966227,-75.168886,"0101000020E610000025B03907CFCA52C090C18A53ADFB4340"
"Central","14911","19th St & Cherry St",39.956405,-75.171024,"0101000020E610000031B5A50EF2CA52C08D5DA27A6BFA4340"
"Central","14912","19th St &  & Arch St",39.955495,-75.171216,"0101000020E61000005323F433F5CA52C0EA3E00A94DFA4340"
"Central","14913","Market St & 5th St",39.950521,-75.149081,"0101000020E61000001EDD088B8AC952C0A39410ACAAF94340"
"Central","14915","Chestnut St & Front St",39.948132,-75.142572,"0101000020E6100000D2544FE61FC952C04225AE635CF94340"
"Central","14916","20th St & Arch St",39.955507,-75.172716,"0101000020E6100000BDDF68C70DCB52C0AE0CAA0D4EFA4340"
"Central","14917","20th St & Wood St",39.959923,-75.17172,"0101000020E61000006C04E275FDCA52C0D0D6C1C1DEFA4340"
"Central","14920","20th St & Spring Garden St",39.963491,-75.170904,"0101000020E61000005BB05417F0CA52C0C37E4FAC53FB4340"
"Central","14921","20th St & Wallace St",39.966283,-75.170267,"0101000020E6100000A2258FA7E5CA52C023D74D29AFFB4340"
"Central","14923","19th St & Chestnut St - FS",39.951617,-75.17201,"0101000020E610000070253B3602CB52C0A8A8FA95CEF94340"
"Central","14926","Brown St & 27th St",39.970474,-75.181344,"0101000020E6100000DA54DD239BCB52C025CFF57D38FC4340"
"Central","14927","23rd St & Fairmount Av",39.967454,-75.175437,"0101000020E610000089601C5C3ACB52C033315D88D5FB4340"
"Central","14928","Arch St & 21st St",39.955868,-75.17445,"0101000020E6100000613255302ACB52C07FA5F3E159FA4340"
"Central","14929","W Rittenhouse Square & Locust St ",39.949368,-75.173045,"0101000020E610000020EF552B13CB52C039EFFFE384F94340"
"Central","14930","Market St & 4th St",39.950312,-75.147428,"0101000020E6100000F1A0D9756FC952C0887FD8D2A3F94340"
"Central","14931","Arch St & 2nd St",39.951971,-75.143147,"0101000020E610000050E1085229C952C0C6DE8B2FDAF94340"
"Central","14932","Arch St & 9th St",39.953353,-75.154502,"0101000020E6100000A94A5B5CE3C952C091459A7807FA4340"
"Central","14933","Arch St & 11th St",39.953807,-75.157771,"0101000020E6100000765089EB18CA52C012D9075916FA4340"
"Central","14934","16th St & Arch St - FS",39.954173,-75.166402,"0101000020E61000004CFF9254A6CA52C0F4DC425722FA4340"
"Central","14935","Arch St & 18th St",39.955242,-75.169445,"0101000020E6100000205ED72FD8CA52C000E2AE5E45FA4340"
"Central","14937","Aspen St & 23rd St - FS",39.968588,-75.175338,"0101000020E6100000BFEFDFBC38CB52C026A60BB1FAFB4340"
"Central","14938","Aspen St & 26th St",39.969141,-75.179789,"0101000020E61000008ECBB8A981CB52C03B1BF2CF0CFC4340"
"Central","14939","27th St & Brown St",39.970456,-75.181167,"0101000020E61000005307793D98CB52C07E1AF7E637FC4340"
"Central","14954","19th St & Spruce St ",39.948073,-75.172789,"0101000020E6100000F20698F90ECB52C03D9CC0745AF94340"
"Central","14956","19th St & Pine St",39.946637,-75.17309,"0101000020E6100000F05014E813CB52C07F17B6662BF94340"
"Central","14958","19th St & Lombard St ",39.945727,-75.173306,"0101000020E6100000D68C0C7217CB52C0DBF813950DF94340"
"Central","14959","19th St & South St ",39.944728,-75.173522,"0101000020E6100000BDC804FC1ACB52C0C8CEDBD8ECF84340"
"Central","14960","19th St & Bainbridge St ",39.943871,-75.173714,"0101000020E6100000DF3653211ECB52C04852D2C3D0F84340"
"Central","14961","19th St & Fitzwater St ",39.942881,-75.17393,"0101000020E6100000C5724BAB21CB52C088821953B0F84340"
"Central","14996","Broad St & South St",39.943524,-75.165426,"0101000020E61000001EFAEE5696CA52C0DC7EF964C5F84340"
"Central","15185","Broad St & Chestnut St - FS",39.950482,-75.164125,"0101000020E61000002FDD240681CA52C0E5B7E864A9F94340"
"Central","15186","Broad St & Walnut St",39.949457,-75.164341,"0101000020E610000015191D9084CA52C0A9FA95CE87F94340"
"Central","15187","Broad St & Locust St",39.948297,-75.164594,"0101000020E61000008AC745B588CA52C08CF2CCCB61F94340"
"Central","15188","Broad St & Spruce St",39.947102,-75.164858,"0101000020E6100000F99E91088DCA52C0F4FC69A33AF94340"
"Central","15189","Broad St & Pine St",39.945692,-75.165158,"0101000020E61000000F2BDCF291CA52C05F0B7A6F0CF94340"
"Central","15190","Broad St & Lombard St",39.944764,-75.165351,"0101000020E610000019575C1C95CA52C01538D906EEF84340"
"Central","15191","Broad St & South St",39.943756,-75.165579,"0101000020E6100000E179A9D898CA52C0AFB321FFCCF84340"
"Central","15192","Broad St & Bainbridge St - FS",39.942632,-75.165819,"0101000020E61000008C834BC79CCA52C0E014562AA8F84340"
"Central","15193","Broad St & Fitzwater St",39.941919,-75.165987,"0101000020E6100000EA23F0879FCA52C0923D42CD90F84340"
"Central","15194","Broad St & Catherine St",39.940911,-75.166203,"0101000020E6100000D05FE811A3CA52C02CB98AC56FF84340"
"Central","15195","Broad St & Christian St",39.940152,-75.166371,"0101000020E61000002E008DD2A5CA52C06EA296E656F84340"
"Central","15196","Broad St & Carpenter St",39.939198,-75.166564,"0101000020E6100000382C0DFCA8CA52C0FB3BDBA337F84340"
"Central","15202","15th St & Washington Av",39.93814,-75.168492,"0101000020E6100000CF68AB92C8CA52C0E388B5F814F84340"
"Central","15398","17th St & Summer St - FS",39.957817,-75.167487,"0101000020E610000054E0641BB8CA52C0C34659BF99FA4340"
"Central","15399","17th St & Walnut St ",39.950074,-75.169181,"0101000020E6100000B1868BDCD3CA52C0D4635B069CF94340"
"Central","15400","17th St & Locust St - FS",39.948637,-75.169481,"0101000020E6100000C712D6C6D8CA52C04563EDEF6CF94340"
"Central","15401","17th St & Spruce St ",39.94771,-75.169673,"0101000020E6100000E98024ECDBCA52C0CC0BB08F4EF94340"
"Central","15403","16th St & Christian St ",39.940364,-75.169488,"0101000020E6100000204432E4D8CA52C0FA2AF9D85DF84340"
"Central","15404","16th St & Lombard St ",39.945003,-75.168479,"0101000020E610000005C4245CC8CA52C09ACFB9DBF5F84340"
"Central","15941","Broad St & Walnut St",39.949206,-75.164201,"0101000020E61000001D3EE94482CA52C05F950B957FF94340"
"Central","15947","18th St & Arch St",39.955153,-75.169505,"0101000020E61000008BE07F2BD9CA52C091D6187442FA4340"
"Central","15948","18th St & Vine St ",39.958409,-75.168855,"0101000020E610000007B13385CECA52C096986725ADFA4340"
"Central","15950","Vine St & 20th St",39.959271,-75.171651,"0101000020E6100000D8D47954FCCA52C028806264C9FA4340"
"Central","15951","Ben Franklin Pkwy & 21th St",39.960507,-75.173513,"0101000020E6100000931B45D61ACB52C01F4AB4E4F1FA4340"
"Central","15952","Ben Franklin Pkwy & 22nd St",39.961545,-75.174938,"0101000020E6100000F834272F32CB52C0F05014E813FB4340"
"Central","15954","Pennsylvania Av & Spring Garden St",39.964126,-75.175815,"0101000020E61000005CC98E8D40CB52C0959C137B68FB4340"
"Central","15955","Pennsylvania Av & 27th St - MBNS",39.968724,-75.18109,"0101000020E61000007DE882FA96CB52C0D76CE525FFFB4340"
"Central","16119","12th St & Parrish St ",39.968209,-75.156417,"0101000020E610000076E272BC02CA52C0B058C345EEFB4340"
"Central","16120","12th St & Brown St ",39.967254,-75.156622,"0101000020E610000062F5471806CA52C06C76A4FACEFB4340"
"Central","16121","12th St & Fairmount Av",39.966273,-75.156838,"0101000020E6100000483140A209CA52C000016BD5AEFB4340"
"Central","16122","12th St & Wallace St ",39.964667,-75.157187,"0101000020E6100000CE16105A0FCA52C0E54350357AFB4340"
"Central","16123","12th St & Green St ",39.963088,-75.157535,"0101000020E61000006C3EAE0D15CA52C0C495B37746FB4340"
"Central","16124","12th St & Ridge Av ",39.962267,-75.157704,"0101000020E6100000B29C84D217CA52C09082A7902BFB4340"
"Central","16125","12th St & Buttonwood St",39.961117,-75.157968,"0101000020E61000002174D0251CCA52C09850C1E105FB4340"
"Central","16126","12th St & Noble St",39.960037,-75.158185,"0101000020E6100000F06DFAB31FCA52C098F90E7EE2FA4340"
"Central","16127","12th St & Callowhill St ",39.959243,-75.158365,"0101000020E610000030F5F3A622CA52C05EF58079C8FA4340"
"Central","16128","12th St & Vine St ",39.957825,-75.158689,"0101000020E6100000094FE8F527CA52C0462575029AFA4340"
"Central","16129","12th St & Race St ",39.955889,-75.15911,"0101000020E6100000DC9DB5DB2ECA52C096CD1C925AFA4340"
"Central","16130","12th St & Arch St ",39.954069,-75.159542,"0101000020E6100000A915A6EF35CA52C04F90D8EE1EFA4340"
"Central","16131","12th St & Chestnut St",39.950501,-75.160299,"0101000020E610000037A5BC5642CA52C05CE84A04AAF94340"
"Central","16132","12th St & Walnut St",39.948967,-75.160624,"0101000020E6100000F9BCE2A947CA52C0DBFD2AC077F94340"
"Central","16283","8th St & Brown St ",39.9656,-75.151136,"0101000020E6100000E34F5436ACC952C04182E2C798FB4340"
"Central","16284","8th St & Wallace St",39.963584,-75.151569,"0101000020E61000009885764EB3C952C0747973B856FB4340"
"Central","16285","8th St & Green St ",39.962531,-75.151797,"0101000020E610000061A8C30AB7C952C06E313F3734FB4340"
"Central","16288","8th St & Cherry St ",39.954198,-75.153022,"0101000020E61000006364C91CCBC952C04DF4F92823FA4340"
"Central","16289","8th St & Arch St ",39.953297,-75.153215,"0101000020E61000006D904946CEC952C0FD2FD7A205FA4340"
"Central","16290","8th St & Chestnut St ",39.949711,-75.153984,"0101000020E6100000DD06B5DFDAC952C063D34A2190F94340"
"Central","16291","8th St & Walnut St ",39.948221,-75.154297,"0101000020E6100000BD378600E0C952C0B130444E5FF94340"
"Central","16292","8th St & Locust St ",39.947088,-75.154549,"0101000020E61000004A287D21E4C952C08F37F92D3AF94340"
"Central","16293","8th St & Spruce St ",39.945822,-75.154826,"0101000020E610000083A44FABE8C952C02DEBFEB110F94340"
"Central","16294","8th St & Pine St ",39.944403,-75.155103,"0101000020E6100000BC202235EDC952C0459F8F32E2F84340"
"Central","16295","8th St & Lombard St",39.94352,-75.155331,"0101000020E610000085436FF1F0C952C09B8F6B43C5F84340"
"Central","16296","8th St & South St ",39.942485,-75.155559,"0101000020E61000004D66BCADF4C952C03BFC3559A3F84340"
"Central","16297","8th St & Fitzwater St ",39.940657,-75.155955,"0101000020E61000007429AE2AFBC952C072E0D57267F84340"
"Central","16298","8th St & Catharine St ",39.939666,-75.156172,"0101000020E61000004223D8B8FEC952C0E294B9F946F84340"
"Central","16299","8th St & Christian St",39.938667,-75.156376,"0101000020E610000046787B1002CA52C0CF6A813D26F84340"
"Central","16495","12th St & Locust St ",39.947843,-75.160852,"0101000020E6100000C2DF2F664BCA52C00B5F5FEB52F94340"
"Central","16498","12th St & Spruce St ",39.946629,-75.161116,"0101000020E610000031B77BB94FCA52C0FC389A232BF94340"
"Central","16499","12th St & Pine St ",39.945184,-75.161417,"0101000020E61000002E01F8A754CA52C0EA5910CAFBF84340"
"Central","16500","12th St & Lombard St ",39.944274,-75.161598,"0101000020E61000005646239F57CA52C0473B6EF8DDF84340"
"Central","16501","12th St & South St ",39.94332,-75.161814,"0101000020E61000003D821B295BCA52C0D4D4B2B5BEF84340"
"Central","16502","12th St & Bainbridge St ",39.942419,-75.16203,"0101000020E610000023BE13B35ECA52C08410902FA1F84340"
"Central","16503","12th St & Fitzwater St ",39.941447,-75.162258,"0101000020E6100000EBE0606F62CA52C06AF5D55581F84340"
"Central","16504","12th St & Catharine St ",39.940439,-75.162474,"0101000020E6100000D21C59F965CA52C004711E4E60F84340"
"Central","16505","12th St & Christian St ",39.939671,-75.162642,"0101000020E610000030BDFDB968CA52C0F3FFAA2347F84340"
"Central","16557","Poplar St & 28th St",39.972948,-75.182221,"0101000020E61000003EE94482A9CB52C0B45A608F89FC4340"
"Central","16558","Poplar St & 27th St ",39.972775,-75.180863,"0101000020E61000009D83674293CB52C0E6AE25E483FC4340"
"Central","16559","Poplar St & 26th St",39.972576,-75.179258,"0101000020E6100000F8E28BF678CB52C0EF6FD05E7DFC4340"
"Central","16560","26th St & Parrish St",39.97147,-75.179462,"0101000020E6100000FC372F4E7CCB52C0C685032159FC4340"
"Central","16561","26th St & Brown St",39.970372,-75.179702,"0101000020E6100000A741D13C80CB52C0207A522635FC4340"
"Central","16562","26th St & Aspen St ",39.969159,-75.179978,"0101000020E6100000F8FF71C284CB52C0E1CFF0660DFC4340"
"Central","16563","26th St & Pennsylvania Av ",39.968062,-75.180195,"0101000020E6100000C6F99B5088CB52C00C40A374E9FB4340"
"Central","16564","Pennsylvania Av & 25th St ",39.966658,-75.179125,"0101000020E61000005839B4C876CB52C059350873BBFB4340"
"Central","16565","Pennsylvania Av & 24th St",39.965379,-75.177712,"0101000020E6100000D50627A25FCB52C0629F008A91FB4340"
"Central","16566","Pennsylvania Av & Spring Garden St - MBFS",39.963689,-75.175745,"0101000020E6100000E0DBF4673FCB52C0EA4141295AFB4340"
"Central","16569","21st St & Ben Franklin Pkwy",39.960659,-75.173642,"0101000020E610000092CD55F31CCB52C0D5CDC5DFF6FA4340"
"Central","16835","11th St & Catharine St ",39.940051,-75.160775,"0101000020E6100000ECC039234ACA52C03AC9569753F84340"
"Central","16836","11th St & Fitzwater St ",39.941086,-75.16057,"0101000020E610000000AE64C746CA52C09A5C8C8175F84340"
"Central","16837","11th St & Bainbridge St ",39.942049,-75.160331,"0101000020E61000003D62F4DC42CA52C0601DC70F95F84340"
"Central","16838","11th St & South St ",39.942897,-75.160186,"0101000020E6100000BBD1C77C40CA52C08E3F51D9B0F84340"
"Central","16839","11th St & Lombard St ",39.943914,-75.159934,"0101000020E61000002FE1D05B3CCA52C0471E882CD2F84340"
"Central","16840","11th St & Pine St ",39.944806,-75.159742,"0101000020E61000000C73823639CA52C044882B67EFF84340"
"Central","16841","11th St & Spruce St ",39.946215,-75.159441,"0101000020E61000000F29064834CA52C009FEB7921DF94340"
"Central","16842","11th St & Locust St",39.947455,-75.159177,"0101000020E6100000A051BAF42FCA52C041B7973446F94340"
"Central","16843","11th St & Walnut St",39.948579,-75.158913,"0101000020E6100000317A6EA12BCA52C0115663096BF94340"
"Central","16844","11th St & Chestnut St",39.950105,-75.158576,"0101000020E61000008D7BF31B26CA52C00F62670A9DF94340"
"Central","16845","11th St & Arch St",39.953673,-75.157843,"0101000020E6100000C3B986191ACA52C0030AF5F411FA4340"
"Central","16846","11th St & Race St",39.955493,-75.157446,"0101000020E6100000B438639813CA52C0494739984DFA4340"
"Central","16847","11th St & Vine St",39.956679,-75.157158,"0101000020E610000081936DE00ECA52C08FE21C7574FA4340"
"Central","16849","11th St & Noble St",39.959694,-75.156509,"0101000020E6100000E621533E04CA52C06E15C440D7FA4340"
"Central","16850","11th St & Ridge Av",39.960203,-75.156389,"0101000020E6100000111D024702CA52C0B34291EEE7FA4340"
"Central","16851","11th St & Spring Garden St",39.961532,-75.1561,"0101000020E6100000F5B9DA8AFDC952C05B07077B13FB4340"
"Central","16852","11th St & Green St ",39.962674,-75.155848,"0101000020E610000069C9E369F9C952C0D15AD1E638FB4340"
"Central","16853","11th St & Wallace St",39.964164,-75.155535,"0101000020E610000089981249F4C952C082FDD7B969FB4340"
"Central","16854","11th St & Fairmount Av",39.9656,-75.155211,"0101000020E6100000AF3E1EFAEEC952C04182E2C798FB4340"
"Central","16855","11th St & Brown St",39.966554,-75.154983,"0101000020E6100000E71BD13DEBC952C0B4E89D0AB8FB4340"
"Central","16856","11th St & Parrish St",39.967661,-75.154754,"0101000020E6100000363B527DE7C952C0AD4ECE50DCFB4340"
"Central","16857","11th St & Poplar St",39.968838,-75.15449,"0101000020E6100000C763062AE3C952C09F8F32E202FC4340"
"Central","17165","Broad St & Ridge Av - FS",39.966558,-75.160664,"0101000020E61000004069A85148CA52C0F5D72B2CB8FB4340"
"Central","17166","Broad St & Wallace St",39.965273,-75.160964,"0101000020E610000056F5F23B4DCA52C01D5BCF108EFB4340"
"Central","17167","Broad St & Green St",39.963444,-75.16129,"0101000020E6100000FFCA4A9352CA52C083C30B2252FB4340"
"Central","17168","Broad St & Spring Garden St",39.962579,-75.161494,"0101000020E61000000420EEEA55CA52C07F68E6C935FB4340"
"Central","17169","Broad St & Callowhill St",39.959689,-75.162178,"0101000020E61000005D88D51F61CA52C05CAAD216D7FA4340"
"Central","17170","Broad St & Race St ",39.956361,-75.162934,"0101000020E6100000045ABA826DCA52C0BE1589096AFA4340"
"Central","17261","Broad St & Arch St",39.9543,-75.163048,"0101000020E610000068EBE0606FCA52C052499D8026FA4340"
"Central","17262","Broad St & Race St",39.956102,-75.162663,"0101000020E61000003B51121269CA52C0F2D1E28C61FA4340"
"Central","17263","Broad St & Vine St - FS",39.958475,-75.162123,"0101000020E61000007BBB253960CA52C04D840D4FAFFA4340"
"Central","17264","Broad St & Callowhill St - FS",39.959679,-75.161894,"0101000020E6100000CBDAA6785CCA52C039D4EFC2D6FA4340"
"Central","17265","Broad St & Spring Garden St",39.96199,-75.161366,"0101000020E6100000ED2B0FD253CA52C01E8A027D22FB4340"
"Central","17266","Broad St & Green St",39.963667,-75.161053,"0101000020E61000000DFB3DB14ECA52C0029EB47059FB4340"
"Central","17267","Broad St & Wallace St - FS",39.965326,-75.160621,"0101000020E610000041834D9D47CA52C03FFD67CD8FFB4340"
"Central","17268","Broad St & Ridge Av",39.966254,-75.160417,"0101000020E61000003C2EAA4544CA52C089D00836AEFB4340"
"Central","17269","Broad St & Brown St",39.968002,-75.160068,"0101000020E6100000B648DA8D3ECA52C0363B527DE7FB4340"
"Central","17270","Broad St & Parrish St",39.968868,-75.159864,"0101000020E6100000B2F336363BCA52C00A12DBDD03FC4340"
"Central","17271","Broad St & Poplar St",39.970081,-75.159576,"0101000020E61000007F4E417E36CA52C049BC3C9D2BFC4340"
"Central","17544","3rd St & Queen St",39.937204,-75.148448,"0101000020E6100000064A0A2C80C952C017D7F84CF6F74340"
"Central","17546","3rd St & Catharine St",39.937855,-75.148304,"0101000020E61000006C770FD07DC952C0EEB1F4A10BF84340"
"Central","17548","3rd St & Fitzwater St",39.938801,-75.148087,"0101000020E61000009E7DE5417AC952C0DE3994A12AF84340"
"Central","17552","3rd St & Bainbridge St",39.940469,-75.147727,"0101000020E61000001E6FF25B74C952C06FF3C64961F84340"
"Central","17554","3rd St & South St",39.941325,-75.147534,"0101000020E61000001343723271C952C01FF46C567DF84340"
"Central","17557","3rd St & Lombard St",39.942333,-75.147318,"0101000020E61000002D077AA86DC952C08578245E9EF84340"
"Central","17558","3rd St & Pine St",39.943261,-75.147125,"0101000020E610000023DBF97E6AC952C0CF4BC5C6BCF84340"
"Central","17560","3rd St & Spruce St",39.944688,-75.146813,"0101000020E61000002B685A6265C952C03A765089EBF84340"
"Central","17564","3rd St & Walnut St",39.947007,-75.146308,"0101000020E61000002AC93A1C5DC952C0A20A7F8637F94340"
"Central","17567","3rd St & Chestnut St",39.948542,-75.145959,"0101000020E6100000A4E36A6457C952C0F47002D369F94340"
"Central","17571","3rd St & Arch St ",39.952092,-75.145177,"0101000020E610000069C878944AC952C041649126DEF94340"
"Central","17575","3rd St & Race St ",39.953849,-75.144793,"0101000020E610000025ECDB4944C952C041295AB917FA4340"
"Central","17579","3rd St & Vine St ",39.955767,-75.144395,"0101000020E61000002EAD86C43DC952C04BCCB39256FA4340"
"Central","17581","3rd St & Callowhill St",39.957382,-75.14407,"0101000020E61000006C95607138C952C0B9E34D7E8BFA4340"
"Central","17602","3rd St & Willow St ",39.958426,-75.14383,"0101000020E6100000C18BBE8234C952C06CD102B4ADFA4340"
"Central","17604","3rd St & Fairmount Av ",39.962262,-75.143047,"0101000020E61000009EB29AAE27C952C07F17B6662BFB4340"
"Central","17605","3rd St & Brown St ",39.963296,-75.142818,"0101000020E6100000EED11BEE23C952C00E2F88484DFB4340"
"Central","17606","3rd St & Poplar St ",39.964875,-75.142481,"0101000020E61000004AD3A0681EC952C02FDD240681FB4340"
"Central","17607","3rd St & Wildey St ",39.966481,-75.142156,"0101000020E610000088BB7A1519C952C04A9A3FA6B5FB4340"
"Central","17608","3rd St & George St ",39.967596,-75.141915,"0101000020E6100000F5F3A62215C952C0C6DE8B2FDAFB4340"
"Central","17833","Market St & 10th St - MBFS",39.951745,-75.157885,"0101000020E6100000DAE1AFC91ACA52C0D690B8C7D2F94340"
"Central","17842","JFK Blvd & 15th St",39.953652,-75.164763,"0101000020E6100000D0251C7A8BCA52C0EBE1CB4411FA4340"
"Central","17855","11th St & Callowhill St",39.958847,-75.156689,"0101000020E610000026A94C3107CA52C0116F9D7FBBFA4340"
"Central","17860","Ridge Av & Spring Garden St",39.961651,-75.157304,"0101000020E6100000EBE1CB4411CA52C03695456117FB4340"
"Central","17861","Ridge Av & Mt Vernon St",39.963698,-75.158749,"0101000020E610000074D190F128CA52C03D9CC0745AFB4340"
"Central","17862","Ridge Av & Wallace St",39.964913,-75.159347,"0101000020E6100000CE6DC2BD32CA52C01D3EE94482FB4340"
"Central","17863","Ridge Av & Melon St",39.966155,-75.160004,"0101000020E6100000ABCE6A813DCA52C0F6EE8FF7AAFB4340"
"Central","17864","Ridge Av & 15th St",39.967944,-75.161781,"0101000020E61000004F07B29E5ACA52C0022EC896E5FB4340"
"Central","17865","Ridge Av & 16th St",39.969151,-75.16317,"0101000020E61000000D6C956071CA52C05EF1D4230DFC4340"
"Central","17867","Ridge Av & 17th St",39.970395,-75.164571,"0101000020E6100000AEB7CD5488CA52C0D99942E735FC4340"
"Central","18085","4th St & George St ",39.968011,-75.143602,"0101000020E6100000F96871C630C952C08995D1C8E7FB4340"
"Central","18086","4th St & Poplar St ",39.965736,-75.144072,"0101000020E61000003C11C47938C952C0F148BC3C9DFB4340"
"Central","18087","4th St & Brown St ",39.963836,-75.144469,"0101000020E61000004B92E7FA3EC952C08E5A61FA5EFB4340"
"Central","18088","4th St & Fairmount Av ",39.962783,-75.144698,"0101000020E6100000FC7266BB42C952C088122D793CFB4340"
"Central","18089","4th St & Spring Garden St ",39.961195,-75.145023,"0101000020E6100000BD8A8C0E48C952C0130A117008FB4340"
"Central","18090","4th St & Callowhill St ",39.957761,-75.145745,"0101000020E61000008E23D6E253C952C02F3196E997FA4340"
"Central","18091","4th St & Vine St",39.956128,-75.146083,"0101000020E61000001AE0826C59C952C01B65FD6662FA4340"
"Central","18092","4th St & Race St",39.954291,-75.14648,"0101000020E61000002861A6ED5FC952C0FEEE1D3526FA4340"
"Central","18093","4th St & Arch St",39.952497,-75.146853,"0101000020E61000007214200A66C952C0E144F46BEBF94340"
"Central","18094","4th St & Chestnut St",39.94892,-75.147634,"0101000020E6100000C571E0D572C952C09A42E73576F94340"
"Central","18095","4th St & Walnut St",39.947413,-75.148006,"0101000020E6100000276728EE78C952C0126745D444F94340"
"Central","18098","4th St & Locust St",39.946128,-75.148283,"0101000020E610000061E3FA777DC952C03AEAE8B81AF94340"
"Central","18099","4th St & Spruce St",39.94504,-75.148512,"0101000020E610000011C4793881C952C0B7B41A12F7F84340"
"Central","18100","4th St & Pine St",39.943613,-75.148812,"0101000020E61000002750C42286C952C04C8A8F4FC8F84340"
"Central","18101","4th St & Lombard St",39.942712,-75.149028,"0101000020E61000000D8CBCAC89C952C0FCC56CC9AAF84340"
"Central","18102","4th St & South St",39.941695,-75.149245,"0101000020E6100000DB85E63A8DC952C043E7357689F84340"
"Central","18103","4th St & Bainbridge St",39.940892,-75.149425,"0101000020E61000001B0DE02D90C952C0B58828266FF84340"
"Central","18104","4th St & Fitzwater St",39.939251,-75.149786,"0101000020E610000084D9041896C952C01EDE736039F84340"
"Central","18105","4th St & Catharine St",39.938323,-75.14999,"0101000020E6100000882EA86F99C952C0D40AD3F71AF84340"
"Central","18114","4th St & Queen St",39.937645,-75.150146,"0101000020E610000004E8F7FD9BC952C0042159C004F84340"
"Central","18115","4th St & Christian St",39.937003,-75.15029,"0101000020E61000009DBAF2599EC952C07FA0DCB6EFF74340"
"Central","18429","Ridge Av & Wylie St ",39.970467,-75.164854,"0101000020E610000059A7CAF78CCA52C0726C3D4338FC4340"
"Central","18430","Ridge Av & Francis St ",39.969689,-75.163971,"0101000020E6100000849F38807ECA52C03E25E7C41EFC4340"
"Central","18431","Ridge Av & 16th St ",39.969188,-75.163406,"0101000020E6100000177E703E75CA52C07CD6355A0EFC4340"
"Central","18432","Ridge Av & 15th St ",39.967989,-75.162064,"0101000020E6100000F9F6AE415FCA52C0A2F14410E7FB4340"
"Central","18433","Ridge Av & Broad St ",39.966754,-75.160663,"0101000020E610000058AB764D48CA52C07BA35698BEFB4340"
"Central","18434","Ridge Av & Wallace St",39.965092,-75.159618,"0101000020E610000096766A2E37CA52C0CCD0782288FB4340"
"Central","18435","Ridge Av & 13th St ",39.963903,-75.159008,"0101000020E61000005AF3E32F2DCA52C016C26A2C61FB4340"
"Central","18436","Ridge Av & 12th St ",39.96208,-75.157811,"0101000020E6100000BDFC4E9319CA52C05E11FC6F25FB4340"
"Central","18437","Spring Garden St & 11th St",39.961595,-75.156253,"0101000020E6100000B939950C00CA52C0A27F828B15FB4340"
"Central","18438","Spring Garden St & 9th St",39.961445,-75.153042,"0101000020E6100000863AAC70CBC952C08CF337A110FB4340"
"Central","18439","Spring Garden St & 8th St - FS",39.961379,-75.151554,"0101000020E6100000FE648C0FB3C952C0D50792770EFB4340"
"Central","18441","8th St & Callowhill St ",39.958435,-75.152132,"0101000020E6100000342BDB87BCC952C0BF2B82FFADFA4340"
"Central","18442","8th St & Race St ",39.955188,-75.152806,"0101000020E61000007C28D192C7C952C00DC4B29943FA4340"
"Central","18447","Market St & 21st St - FS",39.953691,-75.174789,"0101000020E6100000D6AC33BE2FCB52C0A9BEF38B12FA4340"
"Central","18448","Market St & 20th St",39.953509,-75.173325,"0101000020E610000012A5BDC117CB52C088B839950CFA4340"
"Central","18451","Market St & 16th St",39.952738,-75.167045,"0101000020E610000076FD82DDB0CA52C006D49B51F3F94340"
"Central","18457","Market St & 8th St - MBNS",39.95114,-75.154309,"0101000020E61000009F1EDB32E0C952C06FF59CF4BEF94340"
"Central","18508","7th St & Fitzwater St ",39.940233,-75.154269,"0101000020E61000005872158BDFC952C05BCF108E59F84340"
"Central","18509","7th St & Bainbridge St ",39.941268,-75.154029,"0101000020E6100000AD68739CDBC952C0BB6246787BF84340"
"Central","18510","7th St & South St ",39.942107,-75.15386,"0101000020E6100000670A9DD7D8C952C0952A51F696F84340"
"Central","18511","7th St & Lombard St ",39.943133,-75.153644,"0101000020E610000081CEA44DD5C952C0A2630795B8F84340"
"Central","18512","7th St & Pine St ",39.944042,-75.153428,"0101000020E61000009B92ACC3D1C952C07506465ED6F84340"
"Central","18513","7th St & Spruce St ",39.945452,-75.153115,"0101000020E6100000BB61DBA2CCC952C00AF8359204F94340"
"Central","18514","Washington Sq & Locust St",39.946738,-75.153382,"0101000020E6100000E272BC02D1C952C0B3F0F5B52EF94340"
"Central","18515","7th St & Walnut St",39.947745,-75.152811,"0101000020E610000005DEC9A7C7C952C048F949B54FF94340"
"Central","18516","7th St & Chestnut St ",39.94919,-75.152298,"0101000020E6100000C24F1C40BFC952C05AD8D30E7FF94340"
"Central","18517","7th St & Arch St ",39.952883,-75.151492,"0101000020E6100000C366800BB2C952C00AF5F411F8F94340"
"Central","18518","7th St & Race St - FS",39.955252,-75.151199,"0101000020E6100000070C923EADC952C024B891B245FA4340"
"Central","18519","7th St & Vine St ",39.956452,-75.151278,"0101000020E6100000ADA6EB89AEC952C0CE18E6046DFA4340"
"Central","18520","7th St & Willow St ",39.958601,-75.150289,"0101000020E6100000B5FCC0559EC952C0DA740470B3FA4340"
"Central","18521","7th St & Green St ",39.96225,-75.149602,"0101000020E6100000A35A441493C952C0BA490C022BFB4340"
"Central","18522","7th St & Fairmount Av ",39.963873,-75.1493,"0101000020E6100000BD5296218EC952C0AB3FC23060FB4340"
"Central","18523","7th St & Brown St - MBFS",39.966273,-75.148854,"0101000020E61000003E78EDD286C952C000016BD5AEFB4340"
"Central","19542","Walnut St & 24th St - MBFS",39.951326,-75.179615,"0101000020E6100000BFB7E9CF7ECB52C0D1EAE40CC5F94340"
"Central","19697","Pennsylvania Av & 24th St",39.965477,-75.177428,"0101000020E61000004359F8FA5ACB52C0250516C094FB4340"
"Central","19698","Pennsylvania Av & 25th St",39.966747,-75.178723,"0101000020E6100000C102983270CB52C0C8409E5DBEFB4340"
"Central","19699","Pennsylvania Av & 26th St",39.967874,-75.180065,"0101000020E6100000DF89592F86CB52C00953944BE3FB4340"
"Central","19711","Winter St & 20th St - MBNS",39.958864,-75.17307,"0101000020E6100000CC7A319413CB52C0E7A7380EBCFA4340"
"Central","20412","Spring Garden St & 17th St",39.96316,-75.166145,"0101000020E61000003659A31EA2CA52C05E68AED348FB4340"
"Central","20414","Broad St & S Penn Square",39.951437,-75.16372,"0101000020E6100000DF6C73637ACA52C0289A07B0C8F94340"
"Central","20440","Spring Garden St & Kelly Dr",39.964944,-75.178646,"0101000020E6100000EBE3A1EF6ECB52C0583CF54883FB4340"
"Central","20510","23rd St & Chestnut St - FS",39.952484,-75.178265,"0101000020E61000005F419AB168CB52C04CFBE6FEEAF94340"
"Central","20644","Market St & 22nd St - FS",39.953899,-75.176453,"0101000020E6100000FD1186014BCB52C0F357C85C19FA4340"
"Central","20645","22nd St Trolley Station",39.953962,-75.176736,"0101000020E6100000A80183A44FCB52C039D0436D1BFA4340"
"Central","20646","19th St Trolley Station",39.953327,-75.171637,"0101000020E61000002672C119FCCA52C068B27F9E06FA4340"
"Central","20659","15th St Trolley Station",39.952672,-75.165345,"0101000020E6100000A8E3310395CA52C04FE8F527F1F94340"
"Central","20660","19th St Trolley Station",39.953425,-75.171483,"0101000020E61000007A34D593F9CA52C02B1895D409FA4340"
"Central","20661","22nd St Trolley Station",39.954051,-75.176571,"0101000020E6100000029B73F04CCB52C0A9DBD9571EFA4340"
"Central","20855","8th St & Spring Garden St",39.961683,-75.151871,"0101000020E61000007E8D2441B8C952C0410FB56D18FB4340"
"Central","20961","2nd St & Market St",39.95009,-75.143768,"0101000020E6100000868DB27E33C952C0DA20938C9CF94340"
"Central","20962","20th St & JFK Blvd",39.954669,-75.173026,"0101000020E6100000E4D6A4DB12CB52C0A5C0029832FA4340"
"Central","20968","Juniper St & Commerce St",39.952782,-75.162463,"0101000020E6100000D8F335CB65CA52C0D61BB5C2F4F94340"
"Central","20970","Chestnut St & 3rd St",39.948587,-75.146148,"0101000020E61000000D18247D5AC952C094347F4C6BF94340"
"Central","20971","Chestnut St & 2nd St",39.948333,-75.1442,"0101000020E61000005305A3923AC952C0D95BCAF962F94340"
"Central","20972","Walnut St & 3rd St - FS",39.947214,-75.146732,"0101000020E6100000B5519D0E64C952C01C28F04E3EF94340"
"Central","20973","Walnut St & 4th St - MBFS",39.947432,-75.148455,"0101000020E61000005F7B664980C952C08997A77345F94340"
"Central","20974","2nd St & Walnut St",39.946959,-75.144466,"0101000020E6100000925852EE3EC952C091D3D7F335F94340"
"Central","20975","2nd St & Chestnut St",39.948484,-75.144129,"0101000020E6100000EF59D76839C952C0BF6378EC67F94340"
"Central","20978","Girard Av & Front St",39.968851,-75.136358,"0101000020E610000012A3E716BAC852C034D93F4F03FC4340"
"Central","21073","Poplar St & Stillman St",39.97244,-75.178171,"0101000020E61000001F86562767CB52C03FA9F6E978FC4340"
"Central","21093","Girard Av & 5th St",39.970129,-75.145094,"0101000020E61000002236583849C952C05AF3E32F2DFC4340"
"Central","21095","Girard Av & 3rd St",39.969711,-75.141599,"0101000020E61000005D8940F50FC952C025C9737D1FFC4340"
"Central","21096","Girard Av & 2nd St",39.969439,-75.139805,"0101000020E61000004EB4AB90F2C852C0C53BC09316FC4340"
"Central","21213","16th St & Market St ",39.952594,-75.166822,"0101000020E610000036902E36ADCA52C0D32EA699EEF94340"
"Central","21214","Art Museum Dr & Back Entrance - 2",39.966352,-75.181972,"0101000020E61000006A32E36DA5CB52C04C361E6CB1FB4340"
"Central","21215","Art Museum Dr  & Kelly Dr - MBFS",39.966526,-75.180035,"0101000020E6100000AA4885B185CB52C0EA5DBC1FB7FB4340"
"Central","21216","Art Museum Dr  & Kelly Dr 3 - 1 MBNS",39.966348,-75.179964,"0101000020E6100000459DB98784CB52C00B47904AB1FB4340"
"Central","21249","Lombard St & 2nd St - MBFS",39.942331,-75.14635,"0101000020E610000041F163CC5DC952C0E5805D4D9EF84340"
"Central","21265","Washington Av & 20th St",39.939093,-75.176187,"0101000020E6100000BEBED6A546CB52C086730D3334F84340"
"Central","21306","20th St & Carpenter St ",39.940136,-75.175994,"0101000020E6100000B492567C43CB52C069E55E6056F84340"
"Central","21307","20th St & Christian St ",39.941109,-75.17579,"0101000020E6100000B03DB32440CB52C0527C7C4276F84340"
"Central","21308","20th St & Catherine St ",39.941885,-75.17561,"0101000020E610000070B6B9313DCB52C0E6CB0BB08FF84340"
"Central","21309","20th St & Fitzwater St ",39.942866,-75.17537,"0101000020E6100000C5AC174339CB52C0534145D5AFF84340"
"Central","21310","20th St & Bainbridge St ",39.943847,-75.175166,"0101000020E6100000C15774EB35CB52C0BFB67EFACFF84340"
"Central","21311","20th St & South St ",39.944731,-75.174974,"0101000020E61000009FE925C632CB52C0394206F2ECF84340"
"Central","21312","20th St & Lombard St ",39.945739,-75.17477,"0101000020E61000009A94826E2FCB52C0A0C6BDF90DF94340"
"Central","21313","20th St & Pine St ",39.946622,-75.17459,"0101000020E61000005A0D897B2CCB52C049D6E1E82AF94340"
"Central","21314","20th St & Spruce St ",39.948058,-75.174266,"0101000020E610000081B3942C27CB52C0085BECF659F94340"
"Central","21315","20th St & Locust St ",39.949271,-75.174013,"0101000020E61000000C056C0723CB52C047054EB681F94340"
"Central","21316","20th St & Chestnut St",39.951957,-75.173425,"0101000020E6100000C3D32B6519CB52C061191BBAD9F94340"
"Central","21317","20th St & Market St ",39.953437,-75.173125,"0101000020E6100000AE47E17A14CB52C0EFE53E390AFA4340"
"Central","21318","Market St & 3rd St",39.950103,-75.14587,"0101000020E6100000ECDD1FEF55C952C06E6AA0F99CF94340"
"Central","21319","19th St & JFK Blvd - FS",39.954103,-75.171492,"0101000020E6100000A4E194B9F9CA52C0FC010F0C20FA4340"
"Central","21321","19th St & Catherine St ",39.9419,-75.174146,"0101000020E6100000ABAE433525CB52C01B0DE02D90F84340"
"Central","21322","19th St & Christian St ",39.941186,-75.174314,"0101000020E6100000094FE8F527CB52C0FEB968C878F84340"
"Central","21323","19th St & Carpenter St ",39.940116,-75.174518,"0101000020E61000000EA48B4D2BCB52C0223999B855F84340"
"Central","21436","22nd St & Arch St",39.955943,-75.176174,"0101000020E6100000F419506F46CB52C089EB18575CFA4340"
"Central","21531","8th St & Market St - BSL",39.951138,-75.153636,"0101000020E610000040DF162CD5C952C0CEFDD5E3BEF94340"
"Central","21536","Market St & 24th St - MBFS",39.954432,-75.17938,"0101000020E61000009D6340F67ACB52C0C020E9D32AFA4340"
"Central","21959","3rd St & Girard Av",39.969639,-75.14147,"0101000020E61000005ED72FD80DC952C08CF678211DFC4340"
"Central","22014","Spring Garden St & Art Museum",39.964128,-75.181508,"0101000020E610000097FDBAD39DCB52C03694DA8B68FB4340"
"Central","22015","Spring Garden St & Pennsylvania - FS",39.964108,-75.175661,"0101000020E6100000B18BA2073ECB52C0EFE714E467FB4340"
"Central","22016","Spring Garden St & 21st St",39.963781,-75.172958,"0101000020E610000038656EBE11CB52C0CAC0012D5DFB4340"
"Central","22017","Spring Garden St & 20th St",39.963536,-75.171057,"0101000020E61000001F300F99F2CA52C06342CC2555FB4340"
"Central","22018","Spring Garden St & 18th St",39.963137,-75.16794,"0101000020E61000002DEC6987BFCA52C0A648BE1248FB4340"
"Central","22019","Spring Garden St & 19th St",39.963328,-75.169522,"0101000020E6100000F67CCD72D9CA52C019A9F7544EFB4340"
"Central","22020","Spring Garden St & 17th St",39.962937,-75.166406,"0101000020E6100000ECF65965A6CA52C0DE8D058541FB4340"
"Central","22021","Spring Garden St & 16th St",39.962747,-75.1648,"0101000020E61000005F984C158CCA52C03BA92F4B3BFB4340"
"Central","22022","Spring Garden St & 15th St",39.962556,-75.163265,"0101000020E610000036E50AEF72CA52C0C748F60835FB4340"
"Central","22023","Spring Garden St & 13th St",39.961878,-75.159441,"0101000020E61000000F29064834CA52C0F65E7CD11EFB4340"
"Central","22024","Spring Garden St & 12th St",39.961688,-75.157848,"0101000020E61000004C6F7F2E1ACA52C0537AA69718FB4340"
"Central","22025","Spring Garden St & 7 th St",39.961304,-75.149948,"0101000020E610000070067FBF98C952C0CAC16C020CFB4340"
"Central","22026","Spring Garden St & 6th St",39.96122,-75.148306,"0101000020E61000003DF372D87DC952C06C21C84109FB4340"
"Central","22027","Spring Garden St & 5th St",39.961074,-75.146736,"0101000020E61000005649641F64C952C099840B7904FB4340"
"Central","22028","Spring Garden St & 4th St",39.960892,-75.145107,"0101000020E6100000ECDADE6E49C952C0787E5182FEFA4340"
"Central","22029","Spring Garden St & 3rd St",39.960737,-75.143537,"0101000020E61000000531D0B52FC952C05187156EF9FA4340"
"Central","22030","Spring Garden St & 2nd St - MBFS",39.960453,-75.140704,"0101000020E6100000A69A594B01C952C02C2CB81FF0FA4340"
"Central","22035","Spring Garden St & Front St - MBFS",39.96064,-75.140467,"0101000020E6100000B4CA4C69FDC852C05E9D6340F6FA4340"
"Central","22036","Spring Garden St & 3rd St",39.96095,-75.1433,"0101000020E61000001361C3D32BC952C0AC8BDB6800FB4340"
"Central","22037","Spring Garden St & 4th St",39.961114,-75.144882,"0101000020E6100000DCF126BF45C952C027DD96C805FB4340"
"Central","22038","Spring Garden St & 5th St",39.961297,-75.146499,"0101000020E61000006479573D60C952C0185FB4C70BFB4340"
"Central","22039","Spring Garden St & 6th St",39.961452,-75.148093,"0101000020E61000000FF10F5B7AC952C03F56F0DB10FB4340"
"Central","22040","Spring Garden St & 7th St",39.961536,-75.149699,"0101000020E61000009C4F1DAB94C952C09DF6949C13FB4340"
"Central","22041","Spring Garden St & 8th St",39.961629,-75.151671,"0101000020E61000001A3048FAB4C952C04EF1B8A816FB4340"
"Central","22042","Spring Garden St & 9th St",39.961694,-75.152804,"0101000020E6100000ACAC6D8AC7C952C03561FBC918FB4340"
"Central","22043","Spring Garden St & 10th St",39.96176,-75.154399,"0101000020E61000003FE257ACE1C952C0EC4CA1F31AFB4340"
"Central","22044","Spring Garden St & 11th St",39.961826,-75.156005,"0101000020E6100000CC4065FCFBC952C0A438471D1DFB4340"
"Central","22045","Spring Garden St & 12th St",39.961892,-75.157433,"0101000020E6100000EA93DC6113CA52C05B24ED461FFB4340"
"Central","22046","Spring Garden St & 13th St",39.962101,-75.159169,"0101000020E61000005F622CD32FCA52C07539252026FB4340"
"Central","22048","Spring Garden St & 15th St",39.962761,-75.162969,"0101000020E6100000C25087156ECA52C0A06EA0C03BFB4340"
"Central","22049","Spring Garden St & 16th St",39.962951,-75.164551,"0101000020E61000008BE1EA0088CA52C0435376FA41FB4340"
"Central","22051","Spring Garden St & 18th St",39.963351,-75.16768,"0101000020E61000005F0CE544BBCA52C0D2C8E7154FFB4340"
"Central","22052","Spring Garden St & 19th St",39.963541,-75.169262,"0101000020E6100000289D4830D5CA52C075ADBD4F55FB4340"
"Central","22053","Spring Garden St & 20th St",39.963741,-75.170808,"0101000020E61000004A79AD84EECA52C03C6876DD5BFB4340"
"Central","22054","Spring Garden St & 21st St",39.963977,-75.172709,"0101000020E610000064AE0CAA0DCB52C0508C2C9963FB4340"
"Central","22055","Spring Garden St & 23rd St",39.964367,-75.175956,"0101000020E61000003D62F4DC42CB52C0BB2BBB6070FB4340"
"Central","22137","38th Parellel Pl & Dock St - FS",39.944967,-75.143978,"0101000020E6100000FC5580EF36C952C04D66BCADF4F84340"
"Central","22139","Spruce St & 4th St",39.944977,-75.148299,"0101000020E6100000E3C116BB7DC952C0713C9F01F5F84340"
"Central","22140","Spruce St & 5th St",39.945177,-75.149916,"0101000020E61000006B49473998C952C038F7578FFBF84340"
"Central","22234","23rd St & Walnut St",39.951199,-75.178517,"0101000020E6100000EC3191D26CCB52C0747E8AE3C0F94340"
"Central","22235","23rd St & Locust St",39.950057,-75.178781,"0101000020E61000005B09DD2571CB52C0FE2AC0779BF94340"
"Central","22236","23rd St & Pine St",39.947399,-75.179357,"0101000020E6100000C153C8957ACB52C0ADA1D45E44F94340"
"Central","22237","23rd St & Lombard St",39.946525,-75.179549,"0101000020E6100000E3C116BB7DCB52C057EC2FBB27F94340"
"Central","22238","23rd St & South St",39.945508,-75.179777,"0101000020E6100000ACE4637781CB52C09D0DF96706F94340"
"Central","22239","South St & 21st St",39.94502,-75.177063,"0101000020E61000003A950C0055CB52C07008556AF6F84340"
"Central","22240","South St & 20th St",39.944784,-75.175127,"0101000020E61000006269E04735CB52C05CE49EAEEEF84340"
"Central","22241","South St & 19th St",39.944585,-75.173569,"0101000020E61000005DA626C11BCB52C065A54929E8F84340"
"Central","22242","South St & 18th St",39.944385,-75.172012,"0101000020E610000040A19E3E02CB52C09EEA909BE1F84340"
"Central","22243","South St & 17th St",39.944186,-75.170418,"0101000020E61000009529E620E8CA52C0A8AB3B16DBF84340"
"Central","22244","South St & 16th St",39.944004,-75.16886,"0101000020E610000090662C9ACECA52C087A5811FD5F84340"
"Central","22245","South St & 15th St",39.943804,-75.167291,"0101000020E6100000927A4FE5B4CA52C0C0EAC891CEF84340"
"Central","22246","South St & 13th St",39.943341,-75.163443,"0101000020E6100000A6F0A0D975CA52C0EBFCDB65BFF84340"
"Central","22247","South St & 12th St",39.943141,-75.161862,"0101000020E6100000C51D6FF25BCA52C0244223D8B8F84340"
"Central","22248","South St & 11th St",39.942942,-75.160304,"0101000020E6100000C05AB56B42CA52C02E03CE52B2F84340"
"Central","22249","South St & 10th St",39.942751,-75.158722,"0101000020E6100000F7C9518028CA52C0BAA29410ACF84340"
"Central","22250","South St & 9th St",39.942551,-75.157153,"0101000020E6100000F8DD74CB0ECA52C0F3E7DB82A5F84340"
"Central","22251","South St & 8th St",39.942369,-75.155607,"0101000020E6100000D6011077F5C952C0D2E1218C9FF84340"
"Central","22252","South St & 7th St",39.942152,-75.154013,"0101000020E61000002B8A5759DBC952C035EECD6F98F84340"
"Central","22253","South St & 6th St",39.941961,-75.152444,"0101000020E61000002C9E7AA4C1C952C0C18D942D92F84340"
"Central","22254","South St & 5th St",39.94177,-75.150886,"0101000020E610000027DBC01DA8C952C04D2D5BEB8BF84340"
"Central","22255","South St & 4th St",39.94157,-75.149293,"0101000020E610000064213A048EC952C08672A25D85F84340"
"Central","22256","South St & 3rd St",39.94137,-75.147699,"0101000020E6100000B9A981E673C952C0BFB7E9CF7EF84340"
"Central","22257","South St & 2nd St",39.941143,-75.14587,"0101000020E6100000ECDD1FEF55C952C0FEEDB25F77F84340"
"Central","22258","Lombard St & 3rd St",39.942449,-75.147258,"0101000020E6100000C284D1AC6CC952C0EF92382BA2F84340"
"Central","22259","Lombard St & 4th St",39.942667,-75.148852,"0101000020E61000006EFC89CA86C952C05C02F04FA9F84340"
"Central","22260","Lombard St & 5th St",39.942858,-75.150421,"0101000020E61000006CE8667FA0C952C0D0622992AFF84340"
"Central","22261","Lombard St & 6th St",39.943066,-75.151991,"0101000020E610000053927538BAC952C01AFCFD62B6F84340"
"Central","22262","Lombard St & 7th St",39.943248,-75.153584,"0101000020E6100000164CFC51D4C952C03A02B859BCF84340"
"Central","22263","Lombard St & 8th St",39.943457,-75.155154,"0101000020E6100000FDF50A0BEEC952C05517F032C3F84340"
"Central","22264","Lombard St & 9th St",39.943639,-75.156723,"0101000020E6100000FCE1E7BF07CA52C0751DAA29C9F84340"
"Central","22265","Lombard St & 10th St",39.943821,-75.158258,"0101000020E6100000259529E620CA52C096236420CFF84340"
"Central","22266","Lombard St & 11th St",39.944056,-75.159874,"0101000020E6100000C45E28603BCA52C0DACBB6D3D6F84340"
"Central","22267","Lombard St & 12th St",39.944247,-75.161432,"0101000020E6100000C921E2E654CA52C04D2CF015DDF84340"
"Central","22268","Lombard St & 13th St",39.944438,-75.163014,"0101000020E610000092B245D26ECA52C0C18C2958E3F84340"
"Central","22269","Lombard St & 15th St",39.944892,-75.166862,"0101000020E61000007D3CF4DDADCA52C043209738F2F84340"
"Central","22270","Lombard St & 16th St",39.945119,-75.168419,"0101000020E61000009A417C60C7CA52C003EACDA8F9F84340"
"Central","22271","Lombard St & 17th St",39.945301,-75.170001,"0101000020E610000063D2DF4BE1CA52C024F0879FFFF84340"
"Central","22272","Lombard St & 18th St",39.9455,-75.171582,"0101000020E610000044A51133FBCA52C01B2FDD2406F94340"
"Central","22273","Lombard St & 19th St",39.9457,-75.17314,"0101000020E61000004968CBB914CB52C0E2E995B20CF94340"
"Central","22274","Lombard St & 20th St",39.94589,-75.174698,"0101000020E61000004E2B85402ECB52C085CE6BEC12F94340"
"Central","22275","Lombard St & 21st St",39.946126,-75.176634,"0101000020E61000002657B1F84DCB52C099F221A81AF94340"
"Central","22277","22nd St & Pine St",39.94712,-75.178071,"0101000020E61000006D57E88365CB52C09AB1683A3BF94340"
"Central","22278","22nd St & Spruce St",39.948538,-75.177771,"0101000020E610000058CB9D9960CB52C0B28174B169F94340"
"Central","22279","22nd St & Locust St",39.94976,-75.177495,"0101000020E6100000060DFD135CCB52C0448655BC91F94340"
"Central","22325","Ben Franklin Pkwy & 22nd St",39.96101,-75.17533,"0101000020E61000007E00529B38CB52C082902C6002FB4340"
"Central","22326","Ben Franklin Pkwy & 21st St",39.959918,-75.173845,"0101000020E6100000AE64C74620CB52C0BE6BD097DEFA4340"
"Central","22327","Ben Franklin Pkwy & 20th St",39.959032,-75.172668,"0101000020E6100000354415FE0CCB52C0A3E8818FC1FA4340"
"Central","22328","20th St & Race St",39.957515,-75.17239,"0101000020E6100000130A117008CB52C0F836FDD98FFA4340"
"Central","22329","20th St & Arch St",39.955731,-75.172821,"0101000020E6100000F8C3CF7F0FCB52C0FE62B66455FA4340"
"Central","23979","Columbus Blvd & Washington Av ",39.933239,-75.14334,"0101000020E61000005A0D897B2CC952C0062D246074F74340"
"Central","23980","Columbus Blvd & Christian St ",39.934754,-75.142578,"0101000020E610000043C879FF1FC952C010E7E104A6F74340"
"Central","23981","Columbus Blvd & Lombard Circle",39.941482,-75.142067,"0101000020E6100000D0B52FA017C952C0E7E26F7B82F84340"
"Central","23982","Columbus Blvd & Catherine St - MBFS",39.938421,-75.142032,"0101000020E610000012BF620D17C952C09770E82D1EF84340"
"Central","23983","Columbus Blvd & Spruce St",39.944061,-75.141903,"0101000020E6100000130D52F014C952C0EB36A8FDD6F84340"
"Central","23984","Columbus Blvd & Walnut St",39.946327,-75.141493,"0101000020E61000003AE7A7380EC952C030293E3E21F94340"
"Central","23985","Columbus Blvd & Penns Landing",39.949708,-75.140735,"0101000020E6100000C4995FCD01C952C0F25F200890F94340"
"Central","23986","Columbus Blvd & Race St",39.953401,-75.139752,"0101000020E61000003D635FB2F1C852C0A27C410B09FA4340"
"Central","23987","Columbus Blvd & Vine St - FS",39.955291,-75.139071,"0101000020E61000009C340D8AE6C852C0E294B9F946FA4340"
"Central","23988","Columbus Blvd & Callowhill St",39.95662,-75.138617,"0101000020E6100000DB6AD619DFC852C08A592F8672FA4340"
"Central","24038","Frankford Av & Richmond St ",39.966124,-75.134492,"0101000020E6100000B66455849BC852C0BBF083F3A9FB4340"
"Central","24039","Frankford Av & Delaware Av",39.964812,-75.134485,"0101000020E61000005D33F9669BC852C0E964A9F57EFB4340"
"Central","24041","Fairmount Av & Front St ",39.961332,-75.138503,"0101000020E610000077D9AF3BDDC852C0944C4EED0CFB4340"
"Central","24042","Columbus Blvd & Vine St ",39.955408,-75.139425,"0101000020E6100000ABCFD556ECC852C01B2B31CF4AFA4340"
"Central","24043","Columbus Blvd & Market St ",39.950182,-75.141017,"0101000020E610000086CB2A6C06C952C0BA9F53909FF94340"
"Central","24044","Columbus Blvd & Spruce St ",39.944232,-75.142257,"0101000020E610000022A81ABD1AC952C018EB1B98DCF84340"
"Central","24045","Columbus Blvd & I95 Ramp",39.941715,-75.142432,"0101000020E6100000D9791B9B1DC952C08A93FB1D8AF84340"
"Central","24046","Columbus Blvd & I95 Ramp",39.938788,-75.14242,"0101000020E6100000F792C6681DC952C04AF086342AF84340"
"Central","24047","Columbus Blvd & Christian St",39.934996,-75.142778,"0101000020E6100000A725564623C952C006F2ECF2ADF74340"
"Central","24049","Columbus Blvd & Reed St ",39.929984,-75.14451,"0101000020E61000007AFCDEA63FC952C0D1E638B709F74340"
"Central","24072","Delaware Av & Ellen St",39.963422,-75.135306,"0101000020E6100000F73C7FDAA8C852C09B1F7F6951FB4340"
"Central","24119","8th St & Vine St ",39.957472,-75.152301,"0101000020E61000007A89B14CBFC952C0F96A47718EFA4340"
"Central","24121","9th St & Chestnut St ",39.949741,-75.155448,"0101000020E6100000A20E2BDCF2C952C0CE55F31C91F94340"
"Central","24162","2nd St & Germantown Av",39.96835,-75.139892,"0101000020E6100000363E93FDF3C852C0728A8EE4F2FB4340"
"Central","24163","2nd St & Wildley St ",39.966432,-75.14029,"0101000020E61000002C7DE882FAC852C068E7340BB4FB4340"
"Central","24164","2nd St & Poplar St ",39.964238,-75.140747,"0101000020E6100000A680B4FF01C952C0BDC799266CFB4340"
"Central","24165","2nd St & Brown St ",39.963016,-75.141012,"0101000020E6100000FD15325706C952C02BC3B81B44FB4340"
"Central","24166","2nd St & Fairmount Av ",39.962016,-75.141229,"0101000020E6100000CB0F5CE509C952C0471D1D5723FB4340"
"Central","24167","2nd St & Noble St ",39.959403,-75.141794,"0101000020E61000003831242713C952C09757AEB7CDFA4340"
"Central","24168","2nd St & Callowhill St ",39.957315,-75.14224,"0101000020E6100000B70BCD751AC952C0317C444C89FA4340"
"Central","24169","2nd St & Vine St ",39.955692,-75.142589,"0101000020E61000003DF19C2D20C952C040868E1D54FA4340"
"Central","24170","2nd St & Race St ",39.953908,-75.14295,"0101000020E6100000A5BDC11726C952C046B247A819FA4340"
"Central","24171","2nd St & Arch St ",39.952043,-75.143359,"0101000020E610000096253ACB2CC952C060B1868BDCF94340"
"Central","24172","17th St & Franklintown Blvd ",39.959414,-75.167352,"0101000020E6100000E4BA29E5B5CA52C08BA9F413CEFA4340"
"Central","24326","9th St & Catherine St ",39.939687,-75.157612,"0101000020E6100000425DA45016CA52C0F9BCE2A947F84340"
"Central","24327","9th St & Fitzwater St ",39.940695,-75.157396,"0101000020E61000005C21ACC612CA52C05F419AB168F84340"
"Central","24328","9th St & Bainbridge St ",39.941659,-75.157191,"0101000020E61000006F0ED76A0FCA52C0F67D384888F84340"
"Central","24329","9th St & South St ",39.942515,-75.157011,"0101000020E61000002F87DD770CCA52C0A67EDE54A4F84340"
"Central","24330","9th St & Lombard St ",39.943523,-75.156783,"0101000020E6100000676490BB08CA52C00C03965CC5F84340"
"Central","24331","9th St & Pine St ",39.944415,-75.156591,"0101000020E610000045F6419605CA52C0096D3997E2F84340"
"Central","24332","9th St & Spruce St ",39.94586,-75.15629,"0101000020E610000047ACC5A700CA52C01B4CC3F011F94340"
"Central","24333","9th St & Locust St ",39.947091,-75.156002,"0101000020E61000001407D0EFFBC952C000AB23473AF94340"
"Central","24334","9th St & Walnut St ",39.948224,-75.155761,"0101000020E6100000813FFCFCF7C952C023A46E675FF94340"
"Central","24335","9th St & Arch St",39.953273,-75.154656,"0101000020E6100000558847E2E5C952C0759483D904FA4340"
"Central","24336","Franklin St & Race St - FS",39.955159,-75.151542,"0101000020E61000001C7E37DDB2C952C073BD6DA642FA4340"
"Central","24337","7th St & Wallace St ",39.963044,-75.149457,"0101000020E610000021CA17B490C952C0F44D9A0645FB4340"
"Central","24339","8th St & Noble St ",39.959693,-75.151938,"0101000020E61000004241295AB9C952C09E996038D7FA4340"
"Central","24735","Reed St & Front St ",39.930148,-75.14628,"0101000020E6100000C503CAA65CC952C04C38F4160FF74340"
"Central","24742","Front St & Wharton St ",39.931246,-75.14611,"0101000020E610000096E7C1DD59C952C0F243A51133F74340"
"Central","24743","Front St & Ellsworth - FS",39.932994,-75.145714,"0101000020E61000007024D06053C952C09FAEEE586CF74340"
"Central","24758","Washington Av & 15th St",39.938113,-75.168315,"0101000020E6100000481B47ACC5CA52C0EA79371614F84340"
"Central","24759","Washington Av & 16th St ",39.938312,-75.169885,"0101000020E61000002EC55565DFCA52C0E1B88C9B1AF84340"
"Central","24760","Washington Av & 17th St ",39.938512,-75.171466,"0101000020E61000000F98874CF9CA52C0A873452921F84340"
"Central","24761","Washington Av & 18th St ",39.938702,-75.173047,"0101000020E6100000F06AB93313CB52C04B581B6327F84340"
"Central","24762","Washington Av & 19th St ",39.938902,-75.174629,"0101000020E6100000B9FB1C1F2DCB52C01213D4F02DF84340"
"Central","24763","Washington Av & 21st St ",39.939328,-75.178099,"0101000020E6100000D21C59F965CB52C0CA1B60E63BF84340"
"Central","24764","Washington Av & 22nd St ",39.939528,-75.17968,"0101000020E6100000B3EF8AE07FCB52C091D6187442F84340"
"Central","24765","Washington Av & 23rd St ",39.939728,-75.181356,"0101000020E6100000BC3B32569BCB52C05891D10149F84340"
"Central","24766","Washington Av & 24th St ",39.939936,-75.183008,"0101000020E610000002BA2F67B6CB52C0A22AA6D24FF84340"
"Central","24767","Washington Av & 25th St ",39.940154,-75.184814,"0101000020E6100000F37519FED3CB52C00F9A5DF756F84340"
"Central","24866","3rd St & Monroe St",39.939559,-75.147919,"0101000020E610000040DD408177C952C0CCD4247843F84340"
"Central","24867","3rd St & Green St ",39.961298,-75.143239,"0101000020E6100000C020E9D32AC952C0E8DA17D00BFB4340"
"Central","24971","4th St & Noble St ",39.959509,-75.145372,"0101000020E610000043705CC64DC952C0DC9BDF30D1FA4340"
"Central","25044","Grays Ferry Av & Carpenter St ",39.941396,-75.185766,"0101000020E61000005CAD1397E3CB52C0E84A04AA7FF84340"
"Central","25045","Grays Ferry Av & Christian St ",39.942144,-75.184571,"0101000020E61000009032E202D0CB52C0B20FB22C98F84340"
"Central","25046","Grays Ferry Av & Catherine St ",39.942918,-75.183364,"0101000020E6100000E1D05B3CBCCB52C0A5677A89B1F84340"
"Central","25047","Grays Ferry Av & Fitzwater St ",39.943745,-75.181991,"0101000020E6100000A54A94BDA5CB52C0BB61DBA2CCF84340"
"Central","25048","Grays Ferry Av & Bainbridge St ",39.944581,-75.180595,"0101000020E61000008DB454DE8ECB52C024B6BB07E8F84340"
"Central","25064","Bainbridge St & 22nd St",39.944364,-75.178955,"0101000020E61000002A1DACFF73CB52C087C267EBE0F84340"
"Central","25069","22nd St & South St ",39.945157,-75.178503,"0101000020E61000003ACFD8976CCB52C0F14A92E7FAF84340"
"Central","25072","22nd St & Lombard St ",39.94621,-75.178275,"0101000020E610000071AC8BDB68CB52C0F792C6681DF94340"
"Central","25075","Locust St & 21st St ",39.949588,-75.176067,"0101000020E6100000E9B985AE44CB52C047567E198CF94340"
"Central","25078","Locust St & Rittenhouse Sq ",39.949216,-75.173128,"0101000020E61000006781768714CB52C0836BEEE87FF94340"
"Central","25079","Rittenhouse Sq & 19th St ",39.94868,-75.172693,"0101000020E6100000E1CFF0660DCB52C0452FA3586EF94340"
"Central","25080","Rittenhouse Sq & 18th St ",39.94848,-75.171088,"0101000020E61000003C2F151BF3CA52C07E74EACA67F94340"
"Central","25082","Locust St & 17th St ",39.948771,-75.169469,"0101000020E6100000E52B8194D8CA52C05532005471F94340"
"Central","25083","Locust St & 16th St ",39.948563,-75.167911,"0101000020E6100000E068C70DBFCA52C00B992B836AF94340"
"Central","25084","Locust St & 15th St ",39.948363,-75.166376,"0101000020E6100000B7B585E7A5CA52C044DE72F563F94340"
"Central","25085","Locust St & 13th St ",39.9479,-75.162505,"0101000020E6100000EF1B5F7B66CA52C06FF085C954F94340"
"Central","25086","Locust St & 12th St ",39.9477,-75.160888,"0101000020E610000068942EFD4BCA52C0A835CD3B4EF94340"
"Central","25087","Locust St & 11th St ",39.947509,-75.159354,"0101000020E6100000279F1EDB32CA52C034D593F947F94340"
"Central","25088","Locust St & 10th St ",39.9473,-75.157737,"0101000020E6100000A017EE5C18CA52C01AC05B2041F94340"
"Central","25089","Locust St & 9th St ",39.947119,-75.156167,"0101000020E6100000B96DDFA3FEC952C0CA3505323BF94340"
"Central","25091","Pine St & 7th St ",39.944087,-75.153604,"0101000020E61000003A22DFA5D4C952C015CAC2D7D7F84340"
"Central","25093","Pine St & 5th St ",39.943679,-75.150501,"0101000020E6100000FB40F2CEA1C952C004763579CAF84340"
"Central","25094","Pine St & 4th St ",39.943488,-75.148872,"0101000020E610000091D26C1E87C952C09015FC36C4F84340"
"Central","25095","Spruce St & 3rd St - FS",39.944831,-75.147048,"0101000020E61000004DBC033C69C952C09D9FE238F0F84340"
"Central","25097","Spruce St & 7th St ",39.945559,-75.153056,"0101000020E6100000399D64ABCBC952C020B8CA1308F94340"
"Central","25098","Washington Sq & Walnut St ",39.947826,-75.153153,"0101000020E610000032923D42CDC952C03526C45C52F94340"
"Central","25099","Grays Ferry Av & Bainbridge St ",39.944688,-75.180583,"0101000020E6100000ABCDFFAB8ECB52C03A765089EBF84340"
"Central","25100","Grays Ferry Av & Fitzwater St",39.943906,-75.181908,"0101000020E61000005FB87361A4CB52C0C43F6CE9D1F84340"
"Central","25101","Grays Ferry Av & Catherine St",39.943078,-75.183257,"0101000020E6100000D670917BBACB52C0DEC9A7C7B6F84340"
"Central","25102","Grays Ferry Av & Christian St ",39.94242,-75.184346,"0101000020E610000080492A53CCCB52C0548CF337A1F84340"
"Central","25103","Grays Ferry Av & Carpenter St ",39.941593,-75.185801,"0101000020E61000001AA4E029E4CB52C03E92921E86F84340"
"Central","25121","Reed St & Columbus Blvd - MBFS",39.929976,-75.144923,"0101000020E61000000C5C1E6B46C952C04F081D7409F74340"
"Central","25150","22nd St & Carpenter St ",39.940599,-75.179511,"0101000020E61000006D91B41B7DCB52C03DD34B8C65F84340"
"Central","25151","22nd St & Christian St ",39.941562,-75.179283,"0101000020E6100000A46E675F79CB52C00394861A85F84340"
"Central","25152","22nd St & Catherine St ",39.942302,-75.179127,"0101000020E610000028B517D176CB52C04A7A185A9DF84340"
"Central","25153","22nd St & Fitzwater St ",39.943364,-75.178887,"0101000020E61000007EAB75E272CB52C0A41CCC26C0F84340"
"Central","25154","22nd St & Bainbridge St ",39.944336,-75.178695,"0101000020E61000005C3D27BD6FCB52C0BD378600E0F84340"
"Central","25155","22nd St & Chestnut St ",39.952392,-75.176943,"0101000020E61000006490BB0853CB52C06C7C26FBE7F94340"
"Central","25156","22nd St & Market St ",39.953882,-75.176619,"0101000020E61000008B36C7B94DCB52C01D1F2DCE18FA4340"
"Central","25157","22nd St & Pennsylvania Av",39.962651,-75.174745,"0101000020E6100000EE08A7052FCB52C0193BE12538FB4340"
"Central","25158","Fairmount Av & 23rd St",39.967391,-75.175248,"0101000020E61000001F2C634337CB52C0EDB8E177D3FB4340"
"Central","25160","Fairmount Av & 24th St ",39.96743,-75.176854,"0101000020E6100000AD8A709351CB52C0AB9509BFD4FB4340"
"Central","25203","Hamilton St & 21st St",39.962452,-75.173329,"0101000020E6100000B29C84D217CB52C022FC8BA031FB4340"
"Central","25204","21st St & Market St ",39.953915,-75.175142,"0101000020E6100000FC89CA8635CB52C0F91400E319FA4340"
"Central","25205","23rd St & Fitzwater St ",39.943725,-75.180669,"0101000020E6100000AA99B51490CB52C074B515FBCBF84340"
"Central","25206","23rd St & Catharine St ",39.942734,-75.180885,"0101000020E610000091D5AD9E93CB52C0E469F981ABF84340"
"Central","25207","23rd St & Christian St ",39.941949,-75.181041,"0101000020E61000000C8FFD2C96CB52C0FDBFEAC891F84340"
"Central","25208","23rd St & Carpenter St ",39.940968,-75.181257,"0101000020E6100000F3CAF5B699CB52C0904AB1A371F84340"
"Central","25794","Columbus Blvd & Spring Garden St",39.960338,-75.137326,"0101000020E6100000FEB8FDF2C9C852C0938D075BECFA4340"
"Central","25795","Spring Garden St & 2nd St",39.960749,-75.141328,"0101000020E6100000958098840BC952C01555BFD2F9FA4340"
"Central","25916","Locust St & 8th St ",39.946919,-75.154633,"0101000020E61000007978CF81E5C952C0037B4CA434F94340"
"Central","25918","Delaware Av & Frankford Av",39.964214,-75.134381,"0101000020E61000000B0DC4B299C852C0342C465D6BFB4340"
"Central","26052","8th St & Fairmount Av",39.96461,-75.15134,"0101000020E6100000E8A4F78DAFC952C081B2295778FB4340"
"Central","26053","8th St & Bainbridge St ",39.941638,-75.155727,"0101000020E6100000AB06616EF7C952C0DE550F9887F84340"
"Central","26056","7th St & Willow St - MBFS",39.959582,-75.150084,"0101000020E6100000C9E9EBF99AC952C046EA3D95D3FA4340"
"Central","26057","7th St & Brown St ",39.964872,-75.149107,"0101000020E6100000B32616F88AC952C0BE69FAEC80FB4340"
"Central","26146","16th St & Carpenter St ",39.939374,-75.169704,"0101000020E610000006802A6EDCCA52C03A5B40683DF84340"
"Central","26148","16th St & Wallace St ",39.965467,-75.164022,"0101000020E6100000C57421567FCA52C0012F336C94FB4340"
"Central","26149","16th St & North St ",39.966029,-75.163902,"0101000020E6100000EF6FD05E7DCA52C069FE98D6A6FB4340"
"Central","26150","16th St & Brown St ",39.968242,-75.163445,"0101000020E6100000766C04E275CA52C08B4E965AEFFB4340"
"Central","30079","Market St & 3rd St",39.950201,-75.145492,"0101000020E61000001975ADBD4FC952C031D0B52FA0F94340"
"Central","30080","Market St & 7th St - MBFS",39.951146,-75.152951,"0101000020E6100000FEB8FDF2C9C952C051DCF126BFF94340"
"Central","30081","Market St & 9th St  - MBFS",39.951501,-75.156127,"0101000020E610000072C119FCFDC952C03F8EE6C8CAF94340"
"Central","30082","Market St & 12th St - MBFS",39.952063,-75.160529,"0101000020E6100000D0436D1B46CA52C0A75D4C33DDF94340"
"Central","30101","22nd St & Walnut St",39.950884,-75.177267,"0101000020E61000003EEAAF5758CB52C014252191B6F94340"
"Central","30102","Fairmount Av & 25th St",39.967452,-75.178508,"0101000020E6100000C284D1AC6CCB52C093399677D5FB4340"
"Central","30106","21st St & Ben Franklin Pkwy - FS",39.959553,-75.173894,"0101000020E61000001FBE4C1421CB52C0ACE3F8A1D2FA4340"
"Central","30301","Fairmount Av & 2nd St",39.961936,-75.141087,"0101000020E610000002B9C49107C952C02B6C06B820FB4340"
"Central","30303","Ben Franklin Pkwy & Spring Garden - MBNS",39.962869,-75.176717,"0101000020E61000006CE9D1544FCB52C086AA984A3FFB4340"
"Central","30314","4th St & Monroe St",39.940009,-75.149618,"0101000020E61000002639605793C952C00C79043752F84340"
"Central","30327","19th St & Moravian St - FS",39.950758,-75.172225,"0101000020E61000006EA301BC05CB52C087342A70B2F94340"
"Central","30366","Grays Ferry Av & Peltz St",39.940205,-75.188049,"0101000020E6100000EA42ACFE08CC52C091442FA358F84340"
"Central","30599","Columbus Blvd & Noble St - FS",39.958742,-75.137923,"0101000020E61000007097FDBAD3C852C09CA6CF0EB8FA4340"
"Central","30600","Columbus Av & Callowhill St",39.956915,-75.138864,"0101000020E6100000DFA5D425E3C852C0A306D3307CFA4340"
"Central","30602","Delaware Av & Penn St",39.961666,-75.136482,"0101000020E6100000889FFF1EBCC852C06BD619DF17FB4340"
"Central","30603","Delaware Av & Ellen St - FS",39.963681,-75.135494,"0101000020E610000078B306EFABC852C0676325E659FB4340"
"Central","30631","Penn's Landing - 2",39.949797,-75.140487,"0101000020E6100000D7A02FBDFDC852C0616BB6F292F94340"
"Central","30638","Lombard St & 23rd St",39.946471,-75.179372,"0101000020E61000005C74B2D47ACB52C064CE33F625F94340"
"Central","30639","Lombard St & 24th St",39.946598,-75.180399,"0101000020E6100000CA4E3FA88BCB52C0C13A8E1F2AF94340"
"Central","30640","Lombard St & 25th St",39.946743,-75.181509,"0101000020E610000080BBECD79DCB52C0C45BE7DF2EF94340"
"Central","30641","Lombard St & 26th St",39.946897,-75.182736,"0101000020E610000052F355F2B1CB52C01BD7BFEB33F94340"
"Central","30642","27th St & South St",39.946088,-75.184298,"0101000020E6100000F7ADD689CBCB52C0AC915D6919F94340"
"Central","30644","South St & 26th St",39.945773,-75.183224,"0101000020E6100000E8F527F1B9CB52C04C38F4160FF94340"
"Central","30645","South St & 25th St",39.945619,-75.181961,"0101000020E61000007009C03FA5CB52C0F5BC1B0B0AF94340"
"Central","30646","South St & 24th St",39.945483,-75.180852,"0101000020E6100000A35A441493CB52C045F6419605F94340"
"Central","30647","South St & 23rd St",39.945356,-75.179825,"0101000020E61000003480B74082CB52C0E789E76C01F94340"
"Central","30649","South St & 27th St - FS",39.945909,-75.184003,"0101000020E61000006BD784B4C6CB52C0FCFECD8B13F94340"
"Central","30828","15th St & Ranstead St",39.951797,-75.165537,"0101000020E6100000CA51802898CA52C028B7ED7BD4F94340"
"Central","30834","Art Museum Dr & Spring Garden St - 3",39.964791,-75.18232,"0101000020E6100000085A8121ABCB52C0D13C80457EFB4340"
"Central","30851","Delaware Av & Sugarhouse Dr",39.965423,-75.132451,"0101000020E6100000A454C2137AC852C032E719FB92FB4340"
"Central","30892","Columbus Blvd & Dock St",39.945025,-75.141769,"0101000020E61000008BA548BE12C952C082734694F6F84340"
"Central","30893","Columbus Blvd & Chestnut St",39.947612,-75.141216,"0101000020E6100000016BD5AE09C952C009A69A594BF94340"
"Central","30898","Columbus Blvd & Race St - MBFS",39.952688,-75.140357,"0101000020E6100000F030ED9BFBC852C055A52DAEF1F94340"
"Central","30899","Columbus Blvd & Walnut St",39.946605,-75.141834,"0101000020E61000007FDDE9CE13C952C0739D465A2AF94340"
"Central","30900","Columbus Blvd & Dock St",39.945222,-75.142099,"0101000020E6100000D672672618C952C0D8BAD408FDF84340"
"Central","30901","Columbus Blvd & South St - FS",39.940537,-75.142472,"0101000020E61000002026E1421EC952C0C7D6338463F84340"
"Central","30902","Columbus Blvd & Washington Av - MBFS",39.932419,-75.143957,"0101000020E6100000F0C16B9736C952C0A3957B8159F74340"
"Central","30905","Ridge Av & Poplar St",39.970806,-75.165042,"0101000020E6100000DA1D520C90CA52C05B61FA5E43FC4340"
"Central","30921","23rd St & Walnut St - FS",39.950923,-75.178589,"0101000020E6100000399B8E006ECB52C0D20149D8B7F94340"
"Central","30992","8th St & Walnut St - FS",39.947864,-75.154381,"0101000020E6100000EC87D860E1C952C02387889B53F94340"
"Central","31041","Market St & 2nd St - 2",39.950009,-75.143473,"0101000020E6100000FAB660A92EC952C0EDF318E599F94340"
"Central","31102","23rd St & Bainbridge St - FS",39.944456,-75.180513,"0101000020E61000002FE065868DCB52C0684128EFE3F84340"
"Central","31115","Pennsylvania Av & Fairmount Av",39.967382,-75.179441,"0101000020E6100000F0A31AF67BCB52C09A5E622CD3FB4340"
"Central","31117","Poplar St & 30th St",39.973356,-75.185468,"0101000020E6100000179D2CB5DECB52C0C5AEEDED96FC4340"
"Central","31123","Broad St & Vine St",39.958181,-75.162502,"0101000020E610000037E2C96E66CA52C00553CDACA5FA4340"
"Central","31140","15th St Trolley Station",39.952502,-75.165369,"0101000020E61000006CB1DB6795CA52C0F3AFE595EBF94340"
"Central","31178","Market St & 8th St - MBFS",39.951318,-75.15445,"0101000020E610000080B74082E2C952C04E0CC9C9C4F94340"
"Central","31207","23rd St & Cherry St - FS",39.956936,-75.177305,"0101000020E6100000B51A12F758CB52C0BA2EFCE07CFA4340"
"Central","31208","23rd St & Arch St",39.95624,-75.177437,"0101000020E61000006C06B8205BCB52C04390831266FA4340"
"Central","31348","19th St & JFK Blvd",39.954559,-75.17142,"0101000020E61000005778978BF8CA52C01E8D43FD2EFA4340"
"Central","31382","5th St & Market St",39.950396,-75.148892,"0101000020E6100000B5A84F7287C952C0E61F7D93A6F94340"
"Central","31442","2nd St & Market St - MBNS",39.950322,-75.14372,"0101000020E6100000FEF15EB532C952C0AC55BB26A4F94340"
"Central","31540","Frankford Av & Girard Av - FS",39.96865,-75.134493,"0101000020E61000009F2287889BC852C09CA223B9FCFB4340"
"Central","31564","15th St & Market St - FS",39.952493,-75.165393,"0101000020E6100000307F85CC95CA52C09F55664AEBF94340"
"Central","31592","17th St & North St",39.966434,-75.165613,"0101000020E6100000B7B2446799CA52C009DFFB1BB4FB4340"
"Central","31625","Art Museum Dr & Spring Garden St - 3 FS",39.965076,-75.182414,"0101000020E61000004815C5ABACCB52C0C713419C87FB4340"
"Central","31687","Spring Garden St & Front St",39.960253,-75.139027,"0101000020E6100000B49080D1E5C852C06571FF91E9FA4340"
"Central","31688","Spring Garden St & 10th St",39.96152,-75.154648,"0101000020E61000001399B9C0E5C952C097395D1613FB4340"
"Central","31753","Delaware Av & Penn St",39.961872,-75.136718,"0101000020E610000092B1DAFCBFC852C01478279F1EFB4340"
"Central","31769","16th St & Green St",39.964102,-75.164323,"0101000020E6100000C2BE9D4484CA52C00C01C0B167FB4340"
"Central","32128","Pine St & 13th St",39.945268,-75.163093,"0101000020E6100000384D9F1D70CA52C048FAB48AFEF84340"
"Central","32129","Pine St & 12th St",39.945059,-75.161441,"0101000020E6100000F2CEA10C55CA52C02EE57CB1F7F84340"
"Central","32130","Pine St & 11th St",39.944878,-75.159942,"0101000020E610000070D05E7D3CCA52C0DE5A26C3F1F84340"
"Central","32131","Pine St & 10th St",39.944669,-75.158384,"0101000020E61000006B0DA5F622CA52C0C345EEE9EAF84340"
"Central","32132","Pine St & 9th St",39.94446,-75.156803,"0101000020E61000008A3A730F09CA52C0A930B610E4F84340"
"Central","32139","Lombard South Station - BSL",39.944068,-75.165377,"0101000020E6100000AEA0698995CA52C09E996038D7F84340"
"Central","32140","Walnut Locust Station - BSL",39.948734,-75.164368,"0101000020E610000092205C0185CA52C0384D9F1D70F94340"
"Central","32141","City Hall Station - BSL",39.952464,-75.164059,"0101000020E610000053E751F17FCA52C0054F2157EAF94340"
"Central","32142","Race Vine Station - BSL",39.957021,-75.162589,"0101000020E61000001E6CB1DB67CA52C0E84A04AA7FFA4340"
"Central","32143","Spring Garden Station - BSL",39.962374,-75.161388,"0101000020E6100000E17D552E54CA52C0A6423C122FFB4340"
"Central","32144","8th St & Market St - BSL",39.951138,-75.153542,"0101000020E6100000FF23D3A1D3C952C0CEFDD5E3BEF94340"
"Central","32145","Chinatown Station - BSL",39.955027,-75.1527,"0101000020E6100000598638D6C5C952C004E621533EFA4340"
"Central","32146","Fairmount Station - BSL",39.96703,-75.160379,"0101000020E6100000C6FD47A643CA52C01D2098A3C7FB4340"
"Central","32168","Girard Station - MFL",39.968895,-75.136252,"0101000020E6100000EF004F5AB8C852C0042159C004FC4340"
"Central","32169","Spring Garden Station - MFL",39.960551,-75.140467,"0101000020E6100000B4CA4C69FDC852C0EF91CD55F3FA4340"
"Central","32170","2nd St Station - MFL",39.949858,-75.143746,"0101000020E6100000923B6C2233C952C007EC6AF294F94340"
"Central","32171","5th St Independence Hall Station - MFL",39.950601,-75.148939,"0101000020E61000005586713788C952C0BF45274BADF94340"
"Central","32172","8th St Station - MFL",39.951174,-75.153589,"0101000020E61000009F01F566D4C952C01B67D311C0F94340"
"Central","32173","11th St Station - MFL",39.951764,-75.158322,"0101000020E6100000300F99F221CA52C04CC11A67D3F94340"
"Central","32174","13th St Station - MFL",39.952137,-75.16145,"0101000020E61000001C7C613255CA52C0E1270EA0DFF94340"
"Central","32175","15th St Station - MFL",39.952645,-75.165286,"0101000020E6100000251FBB0B94CA52C055D97745F0F94340"
"Central","32214","Spring Garden St & 8th St",39.961425,-75.151991,"0101000020E610000053927538BAC952C0454772F90FFB4340"
"Central","32220","9th St & Race St",39.95512,-75.154271,"0101000020E610000028EE7893DFC952C0B5E0455F41FA4340"
"Central","32259","Dock St & Front St",39.945304,-75.14302,"0101000020E610000022AB5B3D27C952C09563B2B8FFF84340"
"Central","32272","Pine St & 2nd St",39.943061,-75.145473,"0101000020E6100000DD5CFC6D4FC952C008910C39B6F84340"
"Central","32273","Pine St & Front St",39.942834,-75.143774,"0101000020E6100000F700DD9733C952C047C7D5C8AEF84340"
"Central","32274","Front St & Spruce St",39.944198,-75.143284,"0101000020E61000009082A7902BC952C06C79E57ADBF84340"
"Central","32331","11th St & Market St",39.951603,-75.158264,"0101000020E6100000960854FF20CA52C043E38920CEF94340"
"Central","32370","Race Vine Station - BSL",39.957039,-75.162589,"0101000020E61000001E6CB1DB67CA52C08FFF024180FA4340"
"Central","32371","S1",39.957566,-75.162623,"0101000020E6100000F4A44C6A68CA52C07AE1CE8591FA4340"
"Central","32372","S2",39.95637,-75.162887,"0101000020E6100000637C98BD6CCA52C0117008556AFA4340"
"Central","32373","N1",39.956343,-75.162604,"0101000020E6100000B98C9B1A68CA52C017618A7269FA4340"
"Central","32374","N2",39.95752,-75.162351,"0101000020E610000044DE72F563CA52C00AA2EE0390FA4340"
"Central","32375","Spring Garden St & 2nd St",39.960545,-75.141613,"0101000020E610000010ECF82F10C952C00DAB7823F3FA4340"
"Central","32440","South St & 27th St - MBNS",39.946413,-75.186292,"0101000020E610000069E04735ECCB52C02FC1A90F24F94340"
"Central","32441","South St & 27th St - MBFS",39.946493,-75.186162,"0101000020E610000082700514EACB52C04B72C0AE26F94340"
"Central","32489","Pennsylvania Av & 27th St",39.969198,-75.181714,"0101000020E61000006CCEC133A1CB52C09FAC18AE0EFC4340"
"Central","32490","Fairmount Av & 25th St",39.967354,-75.178792,"0101000020E61000005532005471CB52C0D0D38041D2FB4340"
"Central","32491","Fairmount Av & 24th St",39.967333,-75.177138,"0101000020E61000003F389F3A56CB52C0B9AB5791D1FB4340"
"Central","32492","Fairmount Av & 23rd St",39.967294,-75.17552,"0101000020E6100000D0F23CB83BCB52C0FBCE2F4AD0FB4340"
"Central","32493","Fairmount Av & 22nd St",39.967264,-75.174126,"0101000020E610000088D860E124CB52C0904C874ECFFB4340"
"Central","32494","21st St & Wallace St",39.966707,-75.172286,"0101000020E6100000C1E3DBBB06CB52C03AE8120EBDFB4340"
"Central","32495","21st St & Green St",39.965333,-75.172621,"0101000020E61000009566F3380CCB52C0F25F200890FB4340"
"Central","32496","21st St & Spring Garden St",39.96404,-75.172898,"0101000020E6100000CEE2C5C210CB52C09604A8A965FB4340"
"Central","32497","21st St & Hamilton Av",39.962621,-75.173222,"0101000020E6100000A73CBA1116CB52C0AEB8382A37FB4340"
"Central","32501","20th St & JFK Blvd",39.954463,-75.172944,"0101000020E61000008602B68311CB52C0FB1EF5D72BFA4340"
"Central","32502","Fairmount Av & Corinthian Av",39.967312,-75.171575,"0101000020E6100000EB73B515FBCA52C0A1832EE1D0FB4340"
"Central","32503","Fairmount Av & 22nd St",39.967371,-75.173831,"0101000020E6100000FC010F0C20CB52C0A60C1CD0D2FB4340"
"Central","32504","Pennsylvania Av & 29th St",39.971247,-75.184023,"0101000020E61000008EAD6708C7CB52C047AB5AD251FC4340"
"Central","32505","29th St & Poplar St",39.973093,-75.183721,"0101000020E6100000A9A5B915C2CB52C0B77BB94F8EFC4340"
"Central","32524","9th St & Market St",39.951177,-75.155124,"0101000020E6100000C8B4368DEDC952C08CDAFD2AC0F94340"
